,postcode,instals,estimated_dwellings,density,capacity,capunder10,cap10_100,capover100,countunder10,count10_100,countover100,pot_kw,pot_sqm,pot_gwh,id,locality,state,long,lat,dc,type,status,sa3,sa3name,sa4,sa4name,region,Lat_precise,Long_precise,SA1_MAINCODE_2011,SA1_MAINCODE_2016,SA2_MAINCODE_2016,SA2_NAME_2016,SA3_CODE_2016,SA3_NAME_2016,SA4_CODE_2016,SA4_NAME_2016,RA_2011,RA_2016,MMM_2015,MMM_2019,ced,altitude,chargezone,phn_code,phn_name,lgaregion,lgacode,electorate,electoraterating
0,800,123,204,34.8,3348,405,2699,244,71,51,1,32376,"207,209",48.4,232,DARWIN,NT,130.83668,-12.458684,,,Updated 3-Dec-2022,70101,Darwin City,701,Darwin,R1,-12.3932794,130.7766611,70101100203,70101100218,701011002,Darwin City,70101,Darwin City,701,Darwin,3,3,2,2,,,NT1,PHN701,Northern Territory,Darwin Waterfront Precinct,71150,Solomon,Inner Metropolitan
1,810,3730,10091,35.5,26749,19774,5466,1509,3587,141,2,198075,"1,267,682",297.7,235,ALAWA,NT,130.866242,-12.381806,,,Updated 3-Dec-2022,70102,Darwin Suburbs,701,Darwin,R1,-12.38,130.873,70102101001,70102101001,701021010,Alawa,70102,Darwin Suburbs,701,Darwin,3,3,2,2,,9.221428871,NT1,PHN701,Northern Territory,Darwin,71000,Solomon,Inner Metropolitan
2,812,2060,6486,30.7,13641,11034,2142,465,1993,65,2,101247,"647,978",151.9,19975,ANULA,NT,130.89047,-12.39124885,Northern Territory Country 1,Delivery Area,Updated 3-Dec-2022,70102,Darwin Suburbs,701,Darwin,R1,-12.3928,130.89,70102101104,70102101104,701021011,Anula,70102,Darwin Suburbs,701,Darwin,3,3,2,2,,4.407201767,NT1,PHN701,Northern Territory,Darwin,71000,Solomon,Inner Metropolitan
3,820,1297,5607,20,19964,6959,6752,6253,1123,170,4,188975,"1,209,440",286.2,262,BAGOT,NT,130.873315,-12.428017,,,Updated 3-Dec-2022,70102,Darwin Suburbs,701,Darwin,R1,-12.411487,130.85541,70101100601,70101100601,701011006,Ludmilla - The Narrows,70101,Darwin City,701,Darwin,3,3,2,2,,24.70760918,NT1,PHN701,Northern Territory,Darwin,71000,Solomon,Inner Metropolitan
4,822,1092,9101,9.7,18423,5735,6354,6334,887,194,11,140603,"899,862",214,282,ACACIA HILLS,NT,130.6254299,-11.75841975,,,Updated 3-Dec-2022,70205,Katherine,702,Northern Territory - Outback,R1,-12.7541536,131.1489404,70103103506,70103103513,701031035,Weddell,70103,Litchfield,701,Darwin,3,3,5,5,,5.123323917,NT1,PHN701,Northern Territory,Tiwi Islands,74050,Solomon,Inner Metropolitan
5,828,319,593,43.3,4418,1638,2780,0,257,62,0,58001,"371,208",88.4,322,BERRIMAH,NT,130.932068,-12.432024,,,Updated 3-Dec-2022,70102,Darwin Suburbs,701,Darwin,R1,-12.433889,130.922778,70102101201,70102101209,701021012,Berrimah,70102,Darwin Suburbs,701,Darwin,3,3,2,2,,38.94760513,NT1,PHN701,Northern Territory,Darwin,71000,Solomon,Inner Metropolitan
6,829,39,342,5.8,1095,140,955,0,20,19,0,53328,"341,300",80.8,24048,HOLTZE,NT,130.9597671,-12.45763297,Northern Territory Country 1,Delivery Area,Updated 3-Dec-2022,70104,Palmerston,701,Darwin,R1,-12.4587,130.961,70104103807,70104103807,701041038,Durack - Marlow Lagoon,70104,Palmerston,701,Darwin,3,3,2,2,,,NT1,PHN701,Northern Territory,Palmerston,72800,Solomon,Inner Metropolitan
7,830,2247,6006,35.9,16873,11964,2817,2092,2155,88,4,123408,"789,812",185.2,20057,ARCHER,NT,130.9580765,-12.52139649,Northern Territory Country 1,Delivery Area,Updated 3-Dec-2022,70104,Palmerston,701,Darwin,R1,-12.5164,130.971,70104104201,70104104202,701041042,Palmerston - South,70104,Palmerston,701,Darwin,3,3,2,2,,7.412225246,NT1,PHN701,Northern Territory,Palmerston,72800,Solomon,Inner Metropolitan
8,832,2749,7488,35.9,17529,15607,1532,390,2690,58,1,86298,"552,306",129.5,20058,BAKEWELL,NT,130.9936551,-12.49684676,Northern Territory Country 1,Delivery Area,Updated 3-Dec-2022,70104,Palmerston,701,Darwin,R1,-12.4987,130.993,70104103606,70104103606,701041036,Bakewell,70104,Palmerston,701,Darwin,3,3,2,2,,27.32530594,NT1,PHN701,Northern Territory,Palmerston,72800,Solomon,Inner Metropolitan
9,834,274,822,31.1,2132,1798,334,0,256,18,0,20441,"130,821",30.7,20062,VIRGINIA,NT,131.0234875,-12.54686461,,Delivery Area,Updated 3-Dec-2022,70103,Litchfield,701,Darwin,R1,-12.5405,131.029,70103103406,70103103407,701031034,Virginia,70103,Litchfield,701,Darwin,3,3,2,2,,,NT1,PHN701,Northern Territory,Palmerston,72800,Lingiari,Rural
10,835,552,1311,39.7,4000,3136,864,0,520,32,0,41918,"268,277",62.9,21821,Coolalinga,NT,131.0415,-12.5231,,,Updated 3-Dec-2022,70103,Litchfield,701,Darwin,R1,-12.5242,131.042,70103103404,70103103408,701031034,Virginia,70103,Litchfield,701,Darwin,3,3,2,2,,47.06829834,NT1,PHN701,Northern Territory,Palmerston,72800,Lingiari,Rural
11,836,1348,3038,41.6,9793,8293,1500,0,1263,85,0,79945,"511,646",120,24061,GIRRAWEEN,NT,131.0962,-12.5255,,Delivery Area,Updated 3-Dec-2022,70103,Litchfield,701,Darwin,R1,-12.542319,131.157189,70103103204,70103103223,701031032,Humpty Doo,70103,Litchfield,701,Darwin,3,3,5,2,,,,,,Litchfield,72300,,
12,837,67,253,23.7,13139,402,232,12505,60,6,1,8113,"51,925",12.3,347,MANTON,NT,131.016647,-12.704767,,,Updated 3-Dec-2022,70103,Litchfield,701,Darwin,R1,-12.8316015,131.1604226,70103103506,70103103513,701031035,Weddell,70103,Litchfield,701,Darwin,3,3,5,5,,26.69979286,NT1,PHN701,Northern Territory,Litchfield,72300,Lingiari,Rural
13,838,141,388,33,1157,856,301,0,128,13,0,9796,"62,696",14.7,349,BERRY SPRINGS,NT,131.0067348,-12.71878122,,,Updated 3-Dec-2022,70103,Litchfield,701,Darwin,R1,-12.7174085,131.0192349,70103103503,70103103510,701031035,Weddell,70103,Litchfield,701,Darwin,3,3,2,2,,15.61395836,NT1,PHN701,Northern Territory,Litchfield,72300,Lingiari,Rural
14,839,34,393,5.3,1205,128,600,477,21,11,2,4218,"26,996",6.3,20065,COOLALINGA,NT,131.0402017,-12.52001124,,Delivery Area,Updated 3-Dec-2022,70103,Litchfield,701,Darwin,R1,-12.5188645,131.0406631,70103103404,70103103408,701031034,Virginia,70103,Litchfield,701,Darwin,3,3,2,2,,43.10192108,NT1,PHN701,Northern Territory,Palmerston,72800,Lingiari,Rural
15,840,129,428,29.4,839,794,45,0,126,3,0,6546,"41,892",9.8,350,DUNDEE BEACH,NT,130.3529386,-12.72451307,,,Updated 3-Dec-2022,70203,Daly - Tiwi - West Arnhem,702,Northern Territory - Outback,R1,-12.7575418,130.3928484,70203105708,70203105708,702031057,Alligator,70203,Daly - Tiwi - West Arnhem,702,Northern Territory - Outback,4,4,6,6,,8.118341446,NT1,PHN701,Northern Territory,Belyuen,70540,Lingiari,Rural
16,841,86,323,22.9,927,516,411,0,74,12,0,9994,"63,963",15.2,353,DARWIN RIVER,NT,130.969862,-12.81922863,,,Updated 3-Dec-2022,70103,Litchfield,701,Darwin,R1,-12.8357379,130.9788775,70103103504,70103103515,701031035,Weddell,70103,Litchfield,701,Darwin,3,3,5,5,,,NT1,PHN701,Northern Territory,Palmerston,72800,Lingiari,Rural
17,845,84,279,24,25738,343,348,25047,67,15,2,7270,"46,528",11.1,354,BATCHELOR,NT,131.038475,-13.045118,,,Updated 3-Dec-2022,70203,Daly - Tiwi - West Arnhem,702,Northern Territory - Outback,R1,-13.0785018,131.0625213,70203105711,70203105711,702031057,Alligator,70203,Daly - Tiwi - West Arnhem,702,Northern Territory - Outback,4,4,6,6,,122.8814011,NT1,PHN701,Northern Territory,Coomalie,70700,Lingiari,Rural
18,846,51,256,18,343,239,104,0,46,5,0,0,0,0,355,ADELAIDE RIVER,NT,131.095002,-13.210299,,,Updated 3-Dec-2022,70203,Daly - Tiwi - West Arnhem,702,Northern Territory - Outback,R1,-13.1748284,131.1401349,70203105711,70203105711,702031057,Alligator,70203,Daly - Tiwi - West Arnhem,702,Northern Territory - Outback,4,4,6,6,,63.03507233,NT1,PHN701,Northern Territory,Coomalie,70700,Lingiari,Rural
19,847,24,273,7.7,283,125,158,0,21,3,0,0,0,0,356,PINE CREEK,NT,131.759154,-14.012122,,,Updated 3-Dec-2022,70203,Daly - Tiwi - West Arnhem,702,Northern Territory - Outback,R1,-13.8380256,131.8004409,70203105803,70203105803,702031058,Daly,70203,Daly - Tiwi - West Arnhem,702,Northern Territory - Outback,4,4,6,6,,200.9763794,NT1,PHN701,Northern Territory,Katherine,72200,Lingiari,Rural
20,850,906,3298,25,41615,4605,2979,34031,823,81,2,77527,"496,170",123.1,20066,COSSACK,NT,132.1721041,-14.46369137,Katherine,Delivery Area,Updated 3-Dec-2022,70205,Katherine,702,Northern Territory - Outback,R1,-14.5052,132.193,70205106712,70205106712,702051067,Katherine,70205,Katherine,702,Northern Territory - Outback,4,4,6,6,,137.0115662,NT1,PHN701,Northern Territory,Katherine,72200,Lingiari,Rural
21,852,284,3326,6,4654,1082,2478,1094,201,80,3,8261,"52,870",12.8,20071,ARNOLD,NT,130.8418661,-16.4525888,Katherine,Delivery Area,Updated 3-Dec-2022,70205,Katherine,702,Northern Territory - Outback,R1,-16.4713,134.287,70205106508,70205106508,702051065,Elsey,70205,Katherine,702,Northern Territory - Outback,5,5,7,7,,97.44712067,NT1,PHN701,Northern Territory,Victoria Daly,74550,Lingiari,Rural
22,853,2,190,0.5,53,3,50,0,1,1,0,14440,"92,418",22.8,20112,TINDAL,NT,132.3791217,-14.53113365,Northern Territory Country 1,Delivery Area,Updated 3-Dec-2022,70205,Katherine,702,Northern Territory - Outback,R1,-14.5473,132.374,70205106717,70205106717,702051067,Katherine,70205,Katherine,702,Northern Territory - Outback,4,4,6,6,,138.4976044,NT1,PHN701,Northern Territory,Katherine,72200,Lingiari,Rural
23,854,17,329,3.3,234,60,174,0,11,6,0,5539,"35,452",8.7,378,BORROLOOLA,NT,136.424191,-16.503809,,,Updated 3-Dec-2022,70205,Katherine,702,Northern Territory - Outback,R1,-16.0684461,136.3097128,70205106601,70205106601,702051066,Gulf,70205,Katherine,702,Northern Territory - Outback,5,5,7,7,,121.5480728,NT1,PHN701,Northern Territory,Roper Gulf,73600,Lingiari,Rural
24,860,150,1214,11.1,1086,711,375,0,135,15,0,29800,"190,721",48.9,380,TENNANT CREEK,NT,134.173599,-19.641301,,,Updated 3-Dec-2022,70202,Barkly,702,Northern Territory - Outback,R1,-19.6573896,134.1815176,70202105608,70202105608,702021056,Tennant Creek,70202,Barkly,702,Northern Territory - Outback,5,5,7,7,,,NT1,PHN701,Northern Territory,Barkly,70420,Lingiari,Rural
25,862,59,699,5.3,590,201,389,0,37,22,0,0,0,0,383,AVON DOWNS,NT,134.463153,-18.251528,,,Updated 3-Dec-2022,70205,Katherine,702,Northern Territory - Outback,R1,-20.0303016,137.4905275,70202105502,70202105502,702021055,Barkly,70202,Barkly,702,Northern Territory - Outback,5,5,7,7,,203.7810516,NT1,PHN701,Northern Territory,Barkly,70420,Lingiari,Rural
26,870,2829,9172,28.9,20584,12726,6014,1844,2650,173,6,179322,"1,147,661",294.6,396,ALICE SPRINGS,NT,133.86314,-23.702291,,,Updated 3-Dec-2022,70201,Alice Springs,702,Northern Territory - Outback,R1,-23.698042,133.8807471,70201104510,70201104510,702011045,Charles,70201,Alice Springs,702,Northern Territory - Outback,4,4,6,6,,576.9984741,NT1,PHN701,Northern Territory,Alice Springs,70200,Lingiari,Rural
27,872,274,5145,3.3,7674,825,2698,4151,172,92,10,734,"4,696",1.2,398,AHERRENGE,NT,131.298809,-21.949513,,,Updated 3-Dec-2022,70202,Barkly,702,Northern Territory - Outback,R1,-21.6721,135.232,70201105209,70201105209,702011052,Sandover - Plenty,70201,Alice Springs,702,Northern Territory - Outback,5,5,7,7,,311.3838806,NT1,PHN701,Northern Territory,Central Desert,70620,Lingiari,Rural
28,873,157,1851,7.9,1485,917,270,298,146,10,1,32502,"208,015",53.1,20193,AMOONGUNA,NT,133.9050112,-23.74471408,,Delivery Area,Updated 3-Dec-2022,70202,Barkly,702,Northern Territory - Outback,R1,-23.7638,133.929,70201105203,70201105203,702011052,Sandover - Plenty,70201,Alice Springs,702,Northern Territory - Outback,4,4,6,6,,546.2302856,NT1,PHN701,Northern Territory,Alice Springs,70200,Lingiari,Rural
29,874,21,303,6.6,161,121,40,0,20,1,0,3646,"23,336",6,20199,IRLPME,NT,133.8647591,-23.64690294,,Delivery Area,Updated 3-Dec-2022,,,,,R1,-23.6407,133.866,70201104813,70201104813,702011048,Larapinta,70201,Alice Springs,702,Northern Territory - Outback,4,4,6,6,,612.3773804,NT1,PHN701,Northern Territory,Alice Springs,70200,Lingiari,
30,875,164,1024,15.2,1133,894,239,0,156,8,0,13650,"87,362",22.3,20202,FLYNN,NT,133.8354205,-23.71350386,,Delivery Area,Updated 3-Dec-2022,,,,,R1,-23.7208,133.865,70201104701,70201104701,702011047,Flynn (NT),70201,Alice Springs,702,Northern Territory - Outback,4,4,6,6,,635.1801147,NT1,PHN701,Northern Territory,Alice Springs,70200,Lingiari,Rural
31,880,29,1678,0.9,931,45,451,435,15,13,1,0,0,0,20204,GAPUWIYAK,NT,135.7954286,-12.50557433,Northern Territory Country 4,Delivery Area,Updated 3-Dec-2022,70204,East Arnhem,702,Northern Territory - Outback,R1,-12.5032,135.806,70204106303,70204106303,702041063,East Arnhem,70204,East Arnhem,702,Northern Territory - Outback,5,5,7,7,,7.183598042,NT1,PHN701,Northern Territory,East Arnhem,71300,Lingiari,Rural
32,885,24,348,2,772,44,728,0,7,17,0,0,0,0,20207,ALYANGULA,NT,136.420066,-13.85078586,Northern Territory Country 4,Delivery Area,Updated 3-Dec-2022,70204,East Arnhem,702,Northern Territory - Outback,R1,-13.8529,136.422,70204106202,70204106202,702041062,Anindilyakwa,70204,East Arnhem,702,Northern Territory - Outback,5,5,7,7,,21.40308571,NT1,PHN701,Northern Territory,East Arnhem,71300,Lingiari,Rural
33,886,12,604,0.7,8622,21,151,8450,4,7,1,10849,"69,436",16.6,457,JABIRU,NT,132.563373,-13.13118,,,Updated 3-Dec-2022,70203,Daly - Tiwi - West Arnhem,702,Northern Territory - Outback,R1,-12.6688351,132.8345405,70203105712,70203105712,702031057,Alligator,70203,Daly - Tiwi - West Arnhem,702,Northern Territory - Outback,4,4,6,6,,,NT1,PHN701,Northern Territory,West Arnhem,74660,Lingiari,Rural
34,2000,66,821,2.8,2677,99,1556,1022,23,40,3,56265,"360,097",72.1,20208,BARANGAROO,NSW,151.2015802,-33.86051951,Sydney Metro,Delivery Area,Updated 6-Feb-2020,11703,Sydney Inner City,117,Sydney - City and Inner South,R1,-33.8638,151.202,11703133727,11703133727,117031337,Sydney - Haymarket - The Rocks,11703,Sydney Inner City,117,Sydney - City and Inner South,1,1,1,1,Sydney,,N1,PHN101,Central and Eastern Sydney,Sydney,17200,Sydney,Inner Metropolitan
35,2007,31,288,7.3,440,82,358,0,21,10,0,16683,"106,772",21.4,4490,BROADWAY,NSW,151.19665,-33.883189,BROADWAY POST SHOP,Delivery Area,Updated 6-Feb-2020,11703,Sydney Inner City,117,Sydney - City and Inner South,R1,-33.8842554,151.1982225,11703133427,11703133453,117031334,Pyrmont - Ultimo,11703,Sydney Inner City,117,Sydney - City and Inner South,1,1,1,1,Sydney,,N1,PHN101,Central and Eastern Sydney,Sydney,17200,Sydney,Inner Metropolitan
36,2008,99,1253,6.1,939,275,664,0,77,22,0,19225,"123,041",24.7,4492,CHIPPENDALE,NSW,151.193858,-33.891146,WATERLOO DELIVERY FACILITY,Delivery Area,Updated 6-Feb-2020,11703,Sydney Inner City,117,Sydney - City and Inner South,R1,-33.8863,151.1999,11703133528,11703133528,117031335,Redfern - Chippendale,11703,Sydney Inner City,117,Sydney - City and Inner South,1,1,1,1,Sydney,23.64698219,N1,PHN101,Central and Eastern Sydney,Sydney,17200,Sydney,Inner Metropolitan
37,2009,27,676,1.9,1667,50,662,955,13,11,3,18489,"118,330",23.8,4495,DARLING ISLAND,NSW,151.193055,-33.871222,Sydney Metro,,Updated 6-Feb-2020,11703,Sydney Inner City,117,Sydney - City and Inner South,R1,-33.8649,151.196,11703133411,11703133411,117031334,Pyrmont - Ultimo,11703,Sydney Inner City,117,Sydney - City and Inner South,1,1,1,1,Sydney,6.369456291,N1,PHN101,Central and Eastern Sydney,Sydney,17200,Sydney,Inner Metropolitan
38,2010,224,4212,4.4,1641,718,923,0,187,37,0,55246,"353,576",71.1,4497,DARLINGHURST,NSW,151.212262,-33.884119,WATERLOO DELIVERY FACILITY,Delivery Area,Updated 6-Feb-2020,11703,Sydney Inner City,117,Sydney - City and Inner South,R1,-33.8780176,151.2204441,11703132922,11703132922,117031329,Darlinghurst,11703,Sydney Inner City,117,Sydney - City and Inner South,1,1,1,1,Sydney,,N1,PHN101,Central and Eastern Sydney,Sydney,17200,Wentworth,Inner Metropolitan
39,2011,58,1609,2.1,863,129,734,0,34,24,0,27559,"176,379",35.7,4500,ELIZABETH BAY,NSW,151.221626,-33.873599,WATERLOO DELIVERY FACILITY,Delivery Area,Updated 6-Feb-2020,11703,Sydney Inner City,117,Sydney - City and Inner South,R1,-33.87143,151.22841,11703133331,11703133331,117031333,Potts Point - Woolloomooloo,11703,Sydney Inner City,117,Sydney - City and Inner South,1,1,1,1,Sydney,32.6687851,N1,PHN101,Central and Eastern Sydney,Sydney,17200,Wentworth,Inner Metropolitan
40,2015,315,1882,11.4,6458,900,4036,1522,215,96,4,111985,"716,707",144.7,4508,ALEXANDRIA,NSW,151.194825,-33.910105,ALEXANDRIA DF,Delivery Area,Updated 6-Feb-2020,11703,Sydney Inner City,117,Sydney - City and Inner South,R1,-33.9080273,151.1902576,11703133018,11703133018,117031330,Erskineville - Alexandria,11703,Sydney Inner City,117,Sydney - City and Inner South,1,1,1,1,Sydney,10.65504837,N1,PHN101,Central and Eastern Sydney,Sydney,17200,Sydney,Inner Metropolitan
41,2016,161,2135,6.6,1313,522,507,284,141,19,1,25204,"161,303",32.4,4511,REDFERN,NSW,151.206211,-33.894912,WATERLOO DELIVERY FACILITY,Delivery Area,Updated 6-Feb-2020,11703,Sydney Inner City,117,Sydney - City and Inner South,R1,-33.892215,151.205873,11703133536,11703133536,117031335,Redfern - Chippendale,11703,Sydney Inner City,117,Sydney - City and Inner South,1,1,1,1,Sydney,34.33643341,N1,PHN101,Central and Eastern Sydney,Sydney,17200,Sydney,Inner Metropolitan
42,2017,112,1282,5.9,1662,324,1338,0,76,36,0,38899,"248,954",50,4512,WATERLOO,NSW,151.206316,-33.903892,WATERLOO DELIVERY FACILITY,Delivery Area,Updated 6-Feb-2020,11703,Sydney Inner City,117,Sydney - City and Inner South,R1,-33.9002604,151.2061803,11703133836,11703133836,117031338,Waterloo - Beaconsfield,11703,Sydney Inner City,117,Sydney - City and Inner South,1,1,1,1,Sydney,23.63288307,N1,PHN101,Central and Eastern Sydney,Sydney,17200,Sydney,Inner Metropolitan
43,2018,494,2772,15.7,3251,2012,1239,0,436,58,0,55474,"355,036",71.4,4514,EASTLAKES,NSW,151.202697,-33.9233,ALEXANDRIA DF,Delivery Area,Updated 6-Feb-2020,11703,Sydney Inner City,117,Sydney - City and Inner South,R1,-33.9219899,151.20733,11703133826,11703133826,117031338,Waterloo - Beaconsfield,11703,Sydney Inner City,117,Sydney - City and Inner South,1,1,1,1,Kingsford Smith,17.02198219,N1,PHN101,Central and Eastern Sydney,Sydney,17200,Sydney,Inner Metropolitan
44,2019,491,2432,16,4952,1766,3186,0,390,101,0,111059,"710,774",145.9,4516,BANKSMEADOW,NSW,151.207285,-33.946923,ALEXANDRIA DF,Delivery Area,Updated 6-Feb-2020,11701,Botany,117,Sydney - City and Inner South,R1,-33.95731,151.20699,11701132001,11701132001,117011320,Banksmeadow,11701,Botany,117,Sydney - City and Inner South,1,1,1,1,Kingsford Smith,,N1,PHN101,Central and Eastern Sydney,Randwick,16550,Barton,
45,2020,436,2236,17,4364,1688,1967,709,380,54,2,89051,"569,928",113.3,4518,MASCOT,NSW,151.176775,-33.936179,ALEXANDRIA DF,Delivery Area,Updated 6-Feb-2020,11702,Marrickville - Sydenham - Petersham,117,Sydney - City and Inner South,R1,-33.9296324,151.1946223,11701132209,11701132209,117011322,Mascot - Eastlakes,11701,Botany,117,Sydney - City and Inner South,1,1,1,1,Kingsford Smith,,N1,PHN101,Central and Eastern Sydney,Bayside,10500,Sydney,
46,2021,290,4536,5.7,1942,1091,851,0,258,32,0,40176,"257,127",51.8,4521,CENTENNIAL PARK,NSW,151.227236,-33.895705,Sydney Metro,,Updated 6-Feb-2020,11802,Eastern Suburbs - South,118,Sydney - Eastern Suburbs,R1,-33.8943,151.233,11801134201,11801134201,118011342,Centennial Park,11801,Eastern Suburbs - North,118,Sydney - Eastern Suburbs,1,1,1,1,Wentworth,,N1,PHN101,Central and Eastern Sydney,Sydney,17200,Wentworth,Inner Metropolitan
47,2022,351,2569,12.5,1987,1457,530,0,322,29,0,33800,"216,322",43.5,4524,BONDI JUNCTION,NSW,151.245049,-33.896401,WATERLOO DELIVERY FACILITY,Delivery Area,Updated 6-Feb-2020,11801,Eastern Suburbs - North,118,Sydney - Eastern Suburbs,R1,-33.89145,151.2497,11801134114,11801134114,118011341,Bondi Junction - Waverly,11801,Eastern Suburbs - North,118,Sydney - Eastern Suburbs,1,1,1,1,Wentworth,,N1,PHN101,Central and Eastern Sydney,Waverley,18050,Wentworth,Inner Metropolitan
48,2023,320,1713,13.7,2516,1254,1262,0,234,86,0,32095,"205,406",41.4,4527,BELLEVUE HILL,NSW,151.25591,-33.884685,WATERLOO DELIVERY FACILITY,Delivery Area,Updated 6-Feb-2020,11801,Eastern Suburbs - North,118,Sydney - Eastern Suburbs,R1,-33.8826955,151.2539627,11801134313,11801134313,118011343,Double Bay - Bellevue Hill,11801,Eastern Suburbs - North,118,Sydney - Eastern Suburbs,1,1,1,1,Wentworth,98.43782043,N1,PHN101,Central and Eastern Sydney,Waverley,18050,Wentworth,Inner Metropolitan
49,2024,473,2213,18.6,3223,1933,1290,0,412,61,0,27898,"178,548",35.9,4528,BRONTE,NSW,151.259392,-33.904414,WATERLOO DELIVERY FACILITY,Delivery Area,Updated 6-Feb-2020,11801,Eastern Suburbs - North,118,Sydney - Eastern Suburbs,R1,-33.90532,151.26069,11801133904,11801133904,118011339,Bondi - Tamarama - Bronte,11801,Eastern Suburbs - North,118,Sydney - Eastern Suburbs,1,1,1,1,Wentworth,73.60057068,N1,PHN101,Central and Eastern Sydney,Waverley,18050,Wentworth,Inner Metropolitan
50,2025,171,1730,8.6,1127,743,384,0,149,22,0,20893,"133,716",26.9,4531,WOOLLAHRA,NSW,151.240508,-33.88871,WATERLOO DELIVERY FACILITY,Delivery Area,Updated 6-Feb-2020,11801,Eastern Suburbs - North,118,Sydney - Eastern Suburbs,R1,-33.8865002,151.2437606,11801134705,11801134705,118011347,Woollahra,11801,Eastern Suburbs - North,118,Sydney - Eastern Suburbs,1,1,1,1,Wentworth,,N1,PHN101,Central and Eastern Sydney,Woollahra,18500,Wentworth,Inner Metropolitan
51,2026,739,3876,17,4295,3095,1200,0,657,82,0,61928,"396,340",79.8,4532,BEN BUCKLER,NSW,151.268968,-33.891041,Sydney Metro,,Updated 6-Feb-2020,11801,Eastern Suburbs - North,118,Sydney - Eastern Suburbs,R1,-33.8898,151.283,11801134033,11801134033,118011340,Bondi Beach - North Bondi,11801,Eastern Suburbs - North,118,Sydney - Eastern Suburbs,1,1,1,1,Wentworth,,N1,PHN101,Central and Eastern Sydney,Waverley,18050,Wentworth,Inner Metropolitan
52,2027,94,826,9.2,690,368,322,0,76,18,0,18381,"117,640",23.7,4537,DARLING POINT,NSW,151.250494,-33.868972,WATERLOO DELIVERY FACILITY,Delivery Area,Updated 6-Feb-2020,11801,Eastern Suburbs - North,118,Sydney - Eastern Suburbs,R1,-33.87021,151.23746,11801134303,11801134303,118011343,Double Bay - Bellevue Hill,11801,Eastern Suburbs - North,118,Sydney - Eastern Suburbs,1,1,1,1,Wentworth,,N1,PHN101,Central and Eastern Sydney,Woollahra,18500,Wentworth,Inner Metropolitan
53,2028,77,596,9.6,677,293,384,0,57,20,0,13647,"87,338",17.6,4541,DOUBLE BAY,NSW,151.240965,-33.878413,WATERLOO DELIVERY FACILITY,Delivery Area,Updated 6-Feb-2020,11801,Eastern Suburbs - North,118,Sydney - Eastern Suburbs,R1,-33.8775,151.2412,11801134356,11801134356,118011343,Double Bay - Bellevue Hill,11801,Eastern Suburbs - North,118,Sydney - Eastern Suburbs,1,1,1,1,Wentworth,16.54980087,N1,PHN101,Central and Eastern Sydney,Woollahra,18500,Wentworth,Inner Metropolitan
54,2029,233,1325,14,1619,941,678,0,185,48,0,26894,"172,120",34.6,4542,ROSE BAY,NSW,151.266989,-33.875709,WATERLOO DELIVERY FACILITY,Delivery Area,Updated 6-Feb-2020,11801,Eastern Suburbs - North,118,Sydney - Eastern Suburbs,R1,-33.8754209,151.265623,11801134620,11801134620,118011346,Rose Bay - Vaucluse - Watsons Bay,11801,Eastern Suburbs - North,118,Sydney - Eastern Suburbs,1,1,1,1,Wentworth,7.87935257,N1,PHN101,Central and Eastern Sydney,Woollahra,18500,Wentworth,Inner Metropolitan
55,2030,570,3521,12.7,4223,2279,1944,0,447,123,0,52119,"333,559",67.3,4543,DIAMOND BAY,NSW,151.275977,-33.858378,Sydney Metro,,Updated 6-Feb-2020,11801,Eastern Suburbs - North,118,Sydney - Eastern Suburbs,R1,-33.8611,151.28,11801134401,11801134401,118011344,Dover Heights,11801,Eastern Suburbs - North,118,Sydney - Eastern Suburbs,1,1,1,1,Wentworth,,N1,PHN101,Central and Eastern Sydney,Woollahra,18500,Wentworth,Inner Metropolitan
56,2031,898,5209,15.5,5560,3726,1834,0,806,92,0,92295,"590,691",119.1,4549,CLOVELLY,NSW,151.239167,-33.914832,CLOVELLY WEST LPO,Delivery Area,Updated 6-Feb-2020,11802,Eastern Suburbs - South,118,Sydney - Eastern Suburbs,R1,-33.9121,151.2629,11802134803,11802134803,118021348,Coogee - Clovelly,11802,Eastern Suburbs - South,118,Sydney - Eastern Suburbs,1,1,1,1,Kingsford Smith,66.27367401,N1,PHN101,Central and Eastern Sydney,Randwick,16550,Wentworth,Inner Metropolitan
57,2032,505,3206,14,3078,2127,951,0,448,57,0,41528,"265,780",53.5,4553,DACEYVILLE,NSW,151.223936,-33.930314,ALEXANDRIA DF,Delivery Area,Updated 6-Feb-2020,11802,Eastern Suburbs - South,118,Sydney - Eastern Suburbs,R1,-33.92793,151.22349,11701132306,11701132306,117011323,Pagewood - Hillsdale - Daceyville,11701,Botany,117,Sydney - City and Inner South,1,1,1,1,Kingsford Smith,,N1,PHN101,Central and Eastern Sydney,Randwick,16550,Barton,
58,2033,266,1411,16,2130,1126,616,388,226,37,3,39241,"251,141",50.5,4555,KENSINGTON,NSW,151.218435,-33.91139,ALEXANDRIA DF,Delivery Area,Updated 6-Feb-2020,11802,Eastern Suburbs - South,118,Sydney - Eastern Suburbs,R1,-33.9096151,151.2189869,11802134910,11802156409,118021564,Kensington (NSW),11802,Eastern Suburbs - South,118,Sydney - Eastern Suburbs,1,1,1,1,Kingsford Smith,,N1,PHN101,Central and Eastern Sydney,Sydney,17200,Sydney,
59,2034,602,2669,19.6,3563,2504,1059,0,523,79,0,44349,"283,832",57.1,4556,COOGEE,NSW,151.252171,-33.929096,ALEXANDRIA DF,Delivery Area,Updated 6-Feb-2020,11802,Eastern Suburbs - South,118,Sydney - Eastern Suburbs,R1,-33.919,151.2555,11802134844,11802134844,118021348,Coogee - Clovelly,11802,Eastern Suburbs - South,118,Sydney - Eastern Suburbs,1,1,1,1,Kingsford Smith,,N1,PHN101,Central and Eastern Sydney,Randwick,16550,Barton,
60,2035,1470,7769,16.7,8753,5893,2860,0,1299,171,0,99434,"636,380",128.1,4558,MAROUBRA,NSW,151.241292,-33.945635,MAROUBRA SOUTH LPO,Delivery Area,Updated 6-Feb-2020,11802,Eastern Suburbs - South,118,Sydney - Eastern Suburbs,R1,-33.9495,151.2437,11802135143,11802156709,118021567,Maroubra - South,11802,Eastern Suburbs - South,118,Sydney - Eastern Suburbs,1,1,1,1,Kingsford Smith,27.69416046,N1,PHN101,Central and Eastern Sydney,Randwick,16550,Barton,
61,2036,1641,6967,20.4,10598,6745,3618,235,1424,216,1,144448,"924,466",187.8,4561,CHIFLEY,NSW,151.237844,-33.969624,ALEXANDRIA DF,Delivery Area,Updated 6-Feb-2020,11802,Eastern Suburbs - South,118,Sydney - Eastern Suburbs,R1,-33.969,151.24,11802135038,11802135038,118021350,Malabar - La Perouse - Chifley,11802,Eastern Suburbs - South,118,Sydney - Eastern Suburbs,1,1,1,1,Kingsford Smith,,N1,PHN101,Central and Eastern Sydney,Randwick,16550,Barton,
62,2037,336,4676,6.6,1903,1221,682,0,308,28,0,39238,"251,120",50.5,4570,FOREST LODGE,NSW,151.184458,-33.880179,ALEXANDRIA DF,Delivery Area,Updated 6-Feb-2020,11703,Sydney Inner City,117,Sydney - City and Inner South,R1,-33.88396,151.1815,11703133113,11703133113,117031331,Glebe - Forest Lodge,11703,Sydney Inner City,117,Sydney - City and Inner South,1,1,1,1,Sydney,25.32876778,N1,PHN101,Central and Eastern Sydney,Sydney,17200,Sydney,Inner Metropolitan
63,2038,433,3032,13.7,1984,1672,312,0,415,18,0,31250,"200,002",40.4,4572,ANNANDALE,NSW,151.170165,-33.881624,ALEXANDRIA DF,Delivery Area,Updated 6-Feb-2020,12002,Leichhardt,120,Sydney - Inner West,R1,-33.8824062,151.1723645,12002138813,12002138813,120021388,Leichhardt - Annandale,12002,Leichhardt,120,Sydney - Inner West,1,1,1,1,Grayndler,,N1,PHN101,Central and Eastern Sydney,Inner West,14170,Sydney,Inner Metropolitan
64,2039,319,2626,11.7,1549,1246,303,0,306,13,0,24977,"159,851",32.4,4573,ROZELLE,NSW,151.171915,-33.867187,ALEXANDRIA DF,Delivery Area,Updated 6-Feb-2020,12002,Leichhardt,120,Sydney - Inner West,R1,-33.8661553,151.1738213,12002138907,12002138907,120021389,Lilyfield - Rozelle,12002,Leichhardt,120,Sydney - Inner West,1,1,1,1,Grayndler,21.06159782,N1,PHN101,Central and Eastern Sydney,Inner West,14170,Grayndler,Inner Metropolitan
65,2040,1063,7261,13.6,5886,4201,1685,0,990,73,0,82259,"526,460",106.3,4574,LEICHHARDT,NSW,151.156819,-33.878774,ALEXANDRIA DF,Delivery Area,Updated 6-Feb-2020,12002,Leichhardt,120,Sydney - Inner West,R1,-33.8837222,151.157028,12002138837,12002138837,120021388,Leichhardt - Annandale,12002,Leichhardt,120,Sydney - Inner West,1,1,1,1,Grayndler,,N1,PHN101,Central and Eastern Sydney,Inner West,14170,Grayndler,Inner Metropolitan
66,2041,601,4854,11.8,2862,2320,542,0,571,30,0,37098,"237,430",47.8,4576,BALMAIN,NSW,151.180095,-33.858556,ALEXANDRIA DF,Delivery Area,Updated 6-Feb-2020,12002,Leichhardt,120,Sydney - Inner West,R1,-33.85895,151.17906,12002138710,12002138710,120021387,Balmain,12002,Leichhardt,120,Sydney - Inner West,1,1,1,1,Grayndler,,N1,PHN101,Central and Eastern Sydney,Sydney,17200,Grayndler,Inner Metropolitan
67,2042,636,5656,10.6,3076,2309,767,0,601,35,0,46923,"300,310",60.4,4579,ENMORE,NSW,151.175354,-33.900649,ALEXANDRIA DF,Delivery Area,Updated 6-Feb-2020,11703,Sydney Inner City,117,Sydney - City and Inner South,R1,-33.90067,151.16768,11702132748,11702132748,117021327,Petersham - Stanmore,11702,Marrickville - Sydenham - Petersham,117,Sydney - City and Inner South,1,1,1,1,Grayndler,,N1,PHN101,Central and Eastern Sydney,Inner West,14170,Sydney,Inner Metropolitan
68,2043,161,1823,8.3,840,570,270,0,151,10,0,16899,"108,152",21.7,4581,ERSKINEVILLE,NSW,151.184665,-33.903521,ALEXANDRIA DF,Delivery Area,Updated 6-Feb-2020,11703,Sydney Inner City,117,Sydney - City and Inner South,R1,-33.9023649,151.1854757,11703133002,11703133033,117031330,Erskineville - Alexandria,11703,Sydney Inner City,117,Sydney - City and Inner South,1,1,1,1,Sydney,,N1,PHN101,Central and Eastern Sydney,Sydney,17200,Sydney,Inner Metropolitan
69,2044,496,2746,16.4,3962,1833,1139,990,451,44,1,57432,"367,562",74.8,4582,ST PETERS,NSW,151.17074,-33.920698,ALEXANDRIA DF,Delivery Area,Updated 6-Feb-2020,11703,Sydney Inner City,117,Sydney - City and Inner South,R1,-33.9155155,151.1746184,11702132805,11702132805,117021328,Sydenham - Tempe - St Peters,11702,Marrickville - Sydenham - Petersham,117,Sydney - City and Inner South,1,1,1,1,Grayndler,3.762082577,N1,PHN101,Central and Eastern Sydney,Bayside,10500,Sydney,Inner Metropolitan
70,2045,392,2171,15.3,2936,1827,1109,0,332,60,0,35743,"228,753",46,4585,HABERFIELD,NSW,151.138684,-33.879301,LIDCOMBE DELIVERY CENTRE,Delivery Area,Updated 6-Feb-2020,12003,Strathfield - Burwood - Ashfield,120,Sydney - Inner West,R1,-33.8786088,151.1374068,12003139507,12003139507,120031395,Haberfield - Summer Hill,12003,Strathfield - Burwood - Ashfield,120,Sydney - Inner West,1,1,1,1,Grayndler,,N1,PHN101,Central and Eastern Sydney,Inner West,14170,Grayndler,Inner Metropolitan
71,2046,1152,6610,14.9,7391,4595,2796,0,984,168,0,89524,"572,951",115.6,4586,ABBOTSFORD,NSW,151.133865,-33.866044,LIDCOMBE DELIVERY CENTRE,Delivery Area,Updated 6-Feb-2020,12003,Strathfield - Burwood - Ashfield,120,Sydney - Inner West,R1,-33.85215,151.12726,12001138629,12001138629,120011386,Five Dock - Abbotsford,12001,Canada Bay,120,Sydney - Inner West,1,1,1,1,Reid,22.57460403,N1,PHN101,Central and Eastern Sydney,Canada Bay,11520,Reid,Inner Metropolitan
72,2047,369,2272,14.3,2160,1546,614,0,326,43,0,34940,"223,615",45,4593,DRUMMOYNE,NSW,151.165735,-33.853924,LIDCOMBE DELIVERY CENTRE,Delivery Area,Updated 6-Feb-2020,12001,Canada Bay,120,Sydney - Inner West,R1,-33.8523805,151.1548847,12001138533,12001138533,120011385,Drummoyne - Rodd Point,12001,Canada Bay,120,Sydney - Inner West,1,1,1,1,Reid,1,N1,PHN101,Central and Eastern Sydney,Hunters Hill,14100,Reid,Inner Metropolitan
73,2048,296,2120,12.9,1760,1197,563,0,274,22,0,25607,"163,884",33,4594,STANMORE,NSW,151.16564,-33.89418,ALEXANDRIA DF,Delivery Area,Updated 6-Feb-2020,12002,Leichhardt,120,Sydney - Inner West,R1,-33.8920561,151.165081,11702132715,11702132715,117021327,Petersham - Stanmore,11702,Marrickville - Sydenham - Petersham,117,Sydney - City and Inner South,1,1,1,1,Grayndler,,N1,PHN101,Central and Eastern Sydney,Inner West,14170,Sydney,Inner Metropolitan
74,2049,444,2637,15.8,2333,1768,565,0,416,28,0,36567,"234,029",47.1,4321,LEWISHAM,NSW,151.15085,-33.897219,ALEXANDRIA DF,Delivery Area,Updated 6-Feb-2020,12003,Strathfield - Burwood - Ashfield,120,Sydney - Inner West,R1,-33.8949,151.144415,12003139411,12003139411,120031394,Dulwich Hill - Lewisham,12003,Strathfield - Burwood - Ashfield,120,Sydney - Inner West,1,1,1,1,Grayndler,,N1,PHN101,Central and Eastern Sydney,Inner West,14170,Grayndler,Inner Metropolitan
75,2050,184,1163,13.2,1607,543,1064,0,153,31,0,29015,"185,698",37.4,4324,CAMPERDOWN,NSW,151.17598,-33.89037,ALEXANDRIA DF,Delivery Area,Updated 6-Feb-2020,11703,Sydney Inner City,117,Sydney - City and Inner South,R1,-33.8899117,151.1767348,11703133225,11703133225,117031332,Newtown - Camperdown - Darlington,11703,Sydney Inner City,117,Sydney - City and Inner South,1,1,1,1,Sydney,,N1,PHN101,Central and Eastern Sydney,Inner West,14170,Sydney,Inner Metropolitan
76,2060,235,2419,8.2,1923,849,794,280,199,35,1,37266,"238,500",48.1,4331,HMAS PLATYPUS,NSW,151.204557,-33.839863,Sydney Metro,,Updated 6-Feb-2020,12104,North Sydney - Mosman,121,Sydney - North Sydney and Hornsby,R1,-33.8428,151.217,12104141619,12104141619,121041416,Neutral Bay - Kirribilli,12104,North Sydney - Mosman,121,Sydney - North Sydney and Hornsby,1,1,1,1,North Sydney,80.03138733,N1,PHN102,Northern Sydney,North Sydney,15950,Warringah,
77,2061,31,301,7.6,275,103,172,0,23,8,0,9251,"59,204",11.9,4338,KIRRIBILLI,NSW,151.212372,-33.848785,ST LEONARDS DF,Delivery Area,Updated 6-Feb-2020,12104,North Sydney - Mosman,121,Sydney - North Sydney and Hornsby,R1,-33.8491363,151.2175297,12104141601,12104141601,121041416,Neutral Bay - Kirribilli,12104,North Sydney - Mosman,121,Sydney - North Sydney and Hornsby,1,1,1,1,North Sydney,19.26227379,N1,PHN102,Northern Sydney,North Sydney,15950,Warringah,
78,2062,202,1388,13.5,1104,897,207,0,188,14,0,16051,"102,724",20.7,4340,CAMMERAY,NSW,151.21246,-33.822837,ST LEONARDS DF,Delivery Area,Updated 6-Feb-2020,12104,North Sydney - Mosman,121,Sydney - North Sydney and Hornsby,R1,-33.8228068,151.2146155,12104141306,12104141306,121041413,Cremorne - Cammeray,12104,North Sydney - Mosman,121,Sydney - North Sydney and Hornsby,1,1,1,1,North Sydney,,N1,PHN102,Northern Sydney,North Sydney,15950,Bennelong,
79,2063,523,1972,21.5,3643,2088,1555,0,423,100,0,27190,"174,013",35,4341,NORTHBRIDGE,NSW,151.214797,-33.812636,ST LEONARDS DF,Delivery Area,Updated 6-Feb-2020,12101,Chatswood - Lane Cove,121,Sydney - North Sydney and Hornsby,R1,-33.8123999,151.2189869,12101140232,12101140232,121011402,Willoughby - Castle Cove - Northbridge,12101,Chatswood - Lane Cove,121,Sydney - North Sydney and Hornsby,1,1,1,1,North Sydney,,N1,PHN102,Northern Sydney,Willoughby,18250,Bennelong,
80,2064,329,1275,19.9,3732,1226,1976,530,254,74,1,50149,"320,953",65.8,4342,ARTARMON,NSW,151.183801,-33.813209,ST LEONARDS DF,Delivery Area,Updated 6-Feb-2020,12101,Chatswood - Lane Cove,121,Sydney - North Sydney and Hornsby,R1,-33.8086312,151.1840188,12101139814,12101139814,121011398,Chatswood (East) - Artarmon,12101,Chatswood - Lane Cove,121,Sydney - North Sydney and Hornsby,1,1,1,1,North Sydney,,N1,PHN102,Northern Sydney,Lane Cove,14700,Bennelong,
81,2065,795,4746,15,5140,3141,1669,330,713,80,2,81120,"519,167",104.7,4343,CROWS NEST,NSW,151.192212,-33.828361,ST LEONARDS DF,Delivery Area,Updated 6-Feb-2020,12104,North Sydney - Mosman,121,Sydney - North Sydney and Hornsby,R1,-33.82613,151.20505,12104141439,12104141439,121041414,Crows Nest - Waverton,12104,North Sydney - Mosman,121,Sydney - North Sydney and Hornsby,1,1,1,1,North Sydney,-3492,N1,PHN102,Northern Sydney,North Sydney,15950,Bennelong,
82,2066,1645,6443,21.3,11092,6495,4437,160,1374,270,1,100326,"642,085",130,4350,LANE COVE,NSW,151.160912,-33.818641,ST LEONARDS DF,Delivery Area,Updated 6-Feb-2020,12101,Chatswood - Lane Cove,121,Sydney - North Sydney and Hornsby,R1,-33.8148145,151.1663935,12101140019,12101140019,121011400,Lane Cove - Greenwich,12101,Chatswood - Lane Cove,121,Sydney - North Sydney and Hornsby,1,1,1,1,North Sydney,,N1,PHN102,Northern Sydney,Lane Cove,14700,Bennelong,
83,2067,815,3948,18.3,4755,3225,1530,0,724,91,0,74471,"476,615",96.3,4358,CHATSWOOD,NSW,151.17711,-33.798378,ST LEONARDS DF,Delivery Area,Updated 6-Feb-2020,12101,Chatswood - Lane Cove,121,Sydney - North Sydney and Hornsby,R1,-33.7960696,151.1780469,12101139858,12101139858,121011398,Chatswood (East) - Artarmon,12101,Chatswood - Lane Cove,121,Sydney - North Sydney and Hornsby,1,1,1,1,North Sydney,,N1,PHN102,Northern Sydney,Willoughby,18250,Bradfield,Inner Metropolitan
84,2068,1152,5267,19.1,7037,5032,2005,0,1004,148,0,66930,"428,355",86.2,4360,CASTLECRAG,NSW,151.202715,-33.800881,ST LEONARDS DF,Delivery Area,Updated 6-Feb-2020,12101,Chatswood - Lane Cove,121,Sydney - North Sydney and Hornsby,R1,-33.80137,151.22007,12101140203,12101140264,121011402,Willoughby - Castle Cove - Northbridge,12101,Chatswood - Lane Cove,121,Sydney - North Sydney and Hornsby,1,1,1,1,North Sydney,76.94145203,N1,PHN102,Northern Sydney,Willoughby,18250,Bennelong,
85,2069,959,4118,19.4,6277,3951,2326,0,800,159,0,67385,"431,262",86.9,4364,CASTLE COVE,NSW,151.195368,-33.780246,ST LEONARDS DF,Delivery Area,Updated 6-Feb-2020,12103,Ku-ring-gai,121,Sydney - North Sydney and Hornsby,R1,-33.78464,151.20642,12101140218,12101140218,121011402,Willoughby - Castle Cove - Northbridge,12101,Chatswood - Lane Cove,121,Sydney - North Sydney and Hornsby,1,1,1,1,Bradfield,95.8740921,N1,PHN102,Northern Sydney,Willoughby,18250,Bradfield,Inner Metropolitan
86,2070,886,3371,21.5,5973,3674,2299,0,725,161,0,57358,"367,091",74,4367,EAST LINDFIELD,NSW,151.162007,-33.78042,PYMBLE DC,Delivery Area,Updated 6-Feb-2020,12103,Ku-ring-gai,121,Sydney - North Sydney and Hornsby,R1,-33.77274,151.18726,12103140817,12103140817,121031408,Lindfield - Roseville,12103,Ku-ring-gai,121,Sydney - North Sydney and Hornsby,1,1,1,1,Bradfield,74.88643646,N1,PHN102,Northern Sydney,Willoughby,18250,Bradfield,Inner Metropolitan
87,2071,807,3306,18.8,5689,3132,2557,0,622,185,0,54334,"347,736",70,20211,EAST KILLARA,NSW,151.1814551,-33.75536381,Sydney Metro,Delivery Area,Updated 6-Feb-2020,12103,Ku-ring-gai,121,Sydney - North Sydney and Hornsby,R1,-33.75592,151.17973,12103140701,12103140701,121031407,Gordon - Killara,12103,Ku-ring-gai,121,Sydney - North Sydney and Hornsby,1,1,1,1,Bradfield,107.1656952,N1,PHN102,Northern Sydney,Ku-ring-gai,14500,Bradfield,Inner Metropolitan
88,2072,345,1693,15.8,2607,1279,1328,0,268,77,0,31217,"199,789",40.2,4371,GORDON,NSW,151.153176,-33.754582,PYMBLE DC,Delivery Area,Updated 6-Feb-2020,12103,Ku-ring-gai,121,Sydney - North Sydney and Hornsby,R1,-33.7551473,151.1548847,12103140738,12103140738,121031407,Gordon - Killara,12103,Ku-ring-gai,121,Sydney - North Sydney and Hornsby,1,1,1,1,Bradfield,124.1086807,N1,PHN102,Northern Sydney,Ku-ring-gai,14500,Bradfield,Inner Metropolitan
89,2073,1078,4872,18.2,7748,4533,2735,480,885,191,2,74899,"479,353",96.4,4372,PYMBLE,NSW,151.130278,-33.757296,PYMBLE DC,Delivery Area,Updated 6-Feb-2020,12103,Ku-ring-gai,121,Sydney - North Sydney and Hornsby,R1,-33.7456508,151.1431794,12103140925,12103140944,121031409,Pymble,12103,Ku-ring-gai,121,Sydney - North Sydney and Hornsby,1,1,1,1,Bradfield,93.62137604,N1,PHN102,Northern Sydney,Ku-ring-gai,14500,Bradfield,Inner Metropolitan
90,2074,1630,6518,20.7,10468,6563,3905,0,1348,282,0,104607,"669,482",134.5,4374,BOBBIN HEAD,NSW,151.123716,-33.735222,Sydney Metro,,Updated 6-Feb-2020,12601,Pennant Hills - Epping,126,Sydney - Ryde,R1,-33.7,151.148,12103141113,12103141113,121031411,Turramurra,12103,Ku-ring-gai,121,Sydney - North Sydney and Hornsby,1,1,1,1,Bradfield,,N1,PHN102,Northern Sydney,Ku-ring-gai,14500,Bradfield,Inner Metropolitan
91,2075,1423,6427,18,9894,6191,3703,0,1157,266,0,94073,"602,068",121.2,4379,NORTH ST IVES,NSW,151.16729,-33.723693,Sydney Metro,,Updated 6-Feb-2020,12103,Ku-ring-gai,121,Sydney - North Sydney and Hornsby,R1,-33.7214,151.168,12103141027,12103141027,121031410,St Ives,12103,Ku-ring-gai,121,Sydney - North Sydney and Hornsby,1,1,1,1,Bradfield,,N1,PHN102,Northern Sydney,Ku-ring-gai,14500,Bradfield,Inner Metropolitan
92,2076,1558,7428,17.6,10416,6168,4075,173,1311,246,1,111816,"715,620",144,4382,NORMANHURST,NSW,151.108249,-33.723263,THORNLEIGH DC,Delivery Area,Updated 6-Feb-2020,12103,Ku-ring-gai,121,Sydney - North Sydney and Hornsby,R1,-33.7245321,151.0970108,12102140642,12102140642,121021406,Normanhurst - Thornleigh - Westleigh,12102,Hornsby,121,Sydney - North Sydney and Hornsby,1,1,1,1,Bradfield,112.7851563,N1,PHN102,Northern Sydney,Ku-ring-gai,14500,Bradfield,Inner Metropolitan
93,2077,1897,7658,21.6,12676,7573,3861,1242,1657,237,3,143336,"917,348",185,4384,ASQUITH,NSW,151.097508,-33.691922,THORNLEIGH DC,Delivery Area,Updated 6-Feb-2020,12102,Hornsby,121,Sydney - North Sydney and Hornsby,R1,-33.689,151.105,12102140312,12102140312,121021403,Asquith - Mount Colah,12102,Hornsby,121,Sydney - North Sydney and Hornsby,1,1,1,1,Bradfield,,N1,PHN102,Northern Sydney,Ku-ring-gai,14500,Bradfield,Inner Metropolitan
94,2079,661,2436,24,3640,2722,918,0,585,76,0,29769,"190,524",38.3,4388,MOUNT COLAH,NSW,151.112681,-33.666637,THORNLEIGH DC,Delivery Area,Updated 6-Feb-2020,12102,Hornsby,121,Sydney - North Sydney and Hornsby,R1,-33.6709087,151.125756,12102140344,12102140344,121021403,Asquith - Mount Colah,12102,Hornsby,121,Sydney - North Sydney and Hornsby,1,1,1,1,Berowra,194.1537323,N1,PHN102,Northern Sydney,Ku-ring-gai,14500,Bradfield,Inner Metropolitan
95,2080,194,610,26.6,1482,740,742,0,162,32,0,19419,"124,281",25.5,4389,MOUNT KURING-GAI,NSW,151.143563,-33.658174,THORNLEIGH DC,Delivery Area,Updated 6-Feb-2020,12102,Hornsby,121,Sydney - North Sydney and Hornsby,R1,-33.6500724,151.134494,12102140348,12102140348,121021403,Asquith - Mount Colah,12102,Hornsby,121,Sydney - North Sydney and Hornsby,1,1,1,1,Berowra,129.4555206,N1,PHN102,Northern Sydney,Ku-ring-gai,14500,Berowra,Outer Metropolitan
96,2081,663,1873,32.8,3329,2687,642,0,614,49,0,22743,"145,553",29.4,4390,BEROWRA,NSW,151.150498,-33.619756,THORNLEIGH DC,Delivery Area,Updated 6-Feb-2020,12102,Hornsby,121,Sydney - North Sydney and Hornsby,R1,-33.6279738,151.1480265,12102140410,12102140410,121021404,Berowra - Brooklyn - Cowan,12102,Hornsby,121,Sydney - North Sydney and Hornsby,1,1,1,1,Berowra,218.7475586,N1,PHN102,Northern Sydney,Hornsby,14000,Berowra,Outer Metropolitan
97,2082,689,1858,34.4,3553,2843,710,0,640,49,0,23898,"152,947",30.8,20213,BEROWRA CREEK,NSW,151.138709,-33.54620871,New South Wales Country 1,Delivery Area,Updated 6-Feb-2020,12102,Hornsby,121,Sydney - North Sydney and Hornsby,R1,-33.5293,151.139,11502129810,11502129810,115021298,Galston - Laughtondale,11502,Dural - Wisemans Ferry,115,Sydney - Baulkham Hills and Hawkesbury,2,2,5,5,Berowra,0.062535509,N1,PHN102,Northern Sydney,Hornsby,14000,Berowra,Outer Metropolitan
98,2083,232,874,23.2,1266,847,419,0,203,29,0,11829,"75,704",15.3,4394,BAR POINT,NSW,151.194452,-33.525322,THORNLEIGH DC,Delivery Area,Updated 6-Feb-2020,12102,Hornsby,121,Sydney - North Sydney and Hornsby,R1,-33.512577,151.16229,10201103010,10201103010,102011030,Calga - Kulnura,10201,Gosford,102,Central Coast,2,2,2,2,Berowra,1.67375946,N1,PHN108,Hunter New England and Central Coast,Hornsby,14000,Robertson,Provincial
99,2084,374,1161,25.7,2882,1488,1394,0,298,76,0,37406,"239,397",48.4,4400,AKUNA BAY,NSW,151.216929,-33.650999,Sydney Metro,,Updated 6-Feb-2020,12203,Warringah,122,Sydney - Northern Beaches,R1,-33.644,151.237,12203143207,12202142119,122021421,Bayview - Elanora Heights,12202,Pittwater,122,Sydney - Northern Beaches,1,2,1,2,Mackellar,141.5880127,N1,PHN102,Northern Sydney,Northern Beaches,15990,Mackellar,Outer Metropolitan
100,2085,1180,4279,24.2,7123,4765,2358,0,1034,146,0,61073,"390,867",78.7,4404,BELROSE,NSW,151.211719,-33.728782,BELROSE WEST LPO,Delivery Area,Updated 6-Feb-2020,12203,Warringah,122,Sydney - Northern Beaches,R1,-33.73,151.22,12203142812,12203142812,122031428,Frenchs Forest - Belrose,12203,Warringah,122,Sydney - Northern Beaches,1,1,1,1,Mackellar,,N1,PHN102,Northern Sydney,Northern Beaches,15990,Mackellar,Outer Metropolitan
101,2086,1165,4346,23.5,6806,4708,2098,0,1023,142,0,65602,"419,854",84.5,4407,FRENCHS FOREST,NSW,151.229211,-33.75185,FRENCHS FOREST DEL FAC-DEL,Delivery Area,Updated 6-Feb-2020,12203,Warringah,122,Sydney - Northern Beaches,R1,-33.7473073,151.2248157,12203142802,12203142802,122031428,Frenchs Forest - Belrose,12203,Warringah,122,Sydney - Northern Beaches,1,1,1,1,Mackellar,153.6076355,N1,PHN102,Northern Sydney,Willoughby,18250,Warringah,Inner Metropolitan
102,2087,1104,4286,22.4,6344,4407,1937,0,962,142,0,56992,"364,751",73.5,4409,FORESTVILLE,NSW,151.210531,-33.766093,FRENCHS FOREST DEL FAC-DEL,Delivery Area,Updated 6-Feb-2020,12203,Warringah,122,Sydney - Northern Beaches,R1,-33.7613,151.2113,12203142738,12203142738,122031427,Forestville - Killarney Heights,12203,Warringah,122,Sydney - Northern Beaches,1,1,1,1,Warringah,,N1,PHN102,Northern Sydney,Willoughby,18250,Warringah,Inner Metropolitan
103,2088,1021,6085,13.7,7086,4142,2944,0,835,186,0,97321,"622,852",125.4,4411,MOSMAN,NSW,151.243351,-33.830687,ST LEONARDS DEL FAC CPM,Delivery Area,Updated 6-Feb-2020,12104,North Sydney - Mosman,121,Sydney - North Sydney and Hornsby,R1,-33.8303776,151.2393885,12104141506,12104141506,121041415,Mosman,12104,North Sydney - Mosman,121,Sydney - North Sydney and Hornsby,1,1,1,1,Warringah,80.14481354,N1,PHN102,Northern Sydney,Mosman,15350,Warringah,Inner Metropolitan
104,2089,127,1167,9.2,904,487,417,0,107,20,0,23646,"151,337",30.5,20215,KURRABA POINT,NSW,151.2228263,-33.84149573,Sydney Metro,Delivery Area,Updated 6-Feb-2020,12104,North Sydney - Mosman,121,Sydney - North Sydney and Hornsby,R1,-33.843,151.223,12104141635,12104141635,121041416,Neutral Bay - Kirribilli,12104,North Sydney - Mosman,121,Sydney - North Sydney and Hornsby,1,1,1,1,Warringah,,N1,PHN102,Northern Sydney,North Sydney,15950,Warringah,Inner Metropolitan
105,2090,259,1867,12.3,1464,999,465,0,229,30,0,28624,"183,193",36.9,4415,CREMORNE,NSW,151.223094,-33.828949,ST LEONARDS DEL FAC CPM,Delivery Area,Updated 6-Feb-2020,12104,North Sydney - Mosman,121,Sydney - North Sydney and Hornsby,R1,-33.8265345,151.2276279,12104141335,12104141335,121041413,Cremorne - Cammeray,12104,North Sydney - Mosman,121,Sydney - North Sydney and Hornsby,1,1,1,1,North Sydney,,N1,PHN102,Northern Sydney,North Sydney,15950,Warringah,Inner Metropolitan
106,2092,556,2434,19,3737,2177,1560,0,462,94,0,28914,"185,047",37.3,4419,SEAFORTH,NSW,151.241813,-33.796636,FRENCHS FOREST DEL FAC-DEL,Delivery Area,Updated 6-Feb-2020,12201,Manly,122,Sydney - Northern Beaches,R1,-33.7927181,151.2423032,12201141815,12201141815,122011418,Balgowlah - Clontarf - Seaforth,12201,Manly,122,Sydney - Northern Beaches,1,1,1,1,Warringah,67.25391388,N1,PHN102,Northern Sydney,Mosman,15350,Warringah,Inner Metropolitan
107,2093,1423,6138,20,9121,5879,3242,0,1226,197,0,76278,"488,182",98.4,4420,BALGOWLAH,NSW,151.258069,-33.79315,FRENCHS FOREST DEL FAC-DEL,Delivery Area,Updated 6-Feb-2020,12203,Warringah,122,Sydney - Northern Beaches,R1,-33.79645,151.25854,12201141829,12201141829,122011418,Balgowlah - Clontarf - Seaforth,12201,Manly,122,Sydney - Northern Beaches,1,1,1,1,Warringah,54.13179398,N1,PHN102,Northern Sydney,Mosman,15350,Warringah,Inner Metropolitan
108,2094,240,1362,16.1,1311,1020,291,0,219,21,0,14438,"92,405",18.6,4425,FAIRLIGHT,NSW,151.273242,-33.795227,FRENCHS FOREST DEL FAC-DEL,Delivery Area,Updated 6-Feb-2020,12201,Manly,122,Sydney - Northern Beaches,R1,-33.7940757,151.2729111,12201141945,12201141945,122011419,Manly - Fairlight,12201,Manly,122,Sydney - Northern Beaches,1,1,1,1,Warringah,47.22834778,N1,PHN102,Northern Sydney,Mosman,15350,Warringah,Inner Metropolitan
109,2095,422,1733,21.1,2765,1761,1004,0,366,56,0,42011,"268,868",54.2,4426,MANLY,NSW,151.294675,-33.815482,MANLY EAST LPO,Delivery Area,Updated 6-Feb-2020,12201,Manly,122,Sydney - Northern Beaches,R1,-33.8060158,151.2947775,12201141939,12201141939,122011419,Manly - Fairlight,12201,Manly,122,Sydney - Northern Beaches,1,1,1,1,Warringah,94.62801361,N1,PHN102,Northern Sydney,Mosman,15350,Warringah,Inner Metropolitan
110,2096,772,2928,23.1,4423,3197,1226,0,675,97,0,36039,"230,647",46.5,4428,CURL CURL,NSW,151.28494,-33.776781,FRENCHS FOREST DEL FAC-DEL,Delivery Area,Updated 6-Feb-2020,12203,Warringah,122,Sydney - Northern Beaches,R1,-33.77213,151.28992,12203142901,12203142901,122031429,Freshwater - Brookvale,12203,Warringah,122,Sydney - Northern Beaches,1,1,1,1,Warringah,18.66942978,N1,PHN102,Northern Sydney,Mosman,15350,Warringah,Inner Metropolitan
111,2097,1058,3932,24.1,5804,4303,1501,0,949,109,0,50814,"325,208",65.5,4431,COLLAROY,NSW,151.297895,-33.739577,COLLAROY PLATEAU WEST LPO,Delivery Area,Updated 6-Feb-2020,12203,Warringah,122,Sydney - Northern Beaches,R1,-33.73,151.3,12203143123,12203143123,122031431,Narrabeen - Collaroy,12203,Warringah,122,Sydney - Northern Beaches,1,1,1,1,Mackellar,105.6766739,N1,PHN102,Northern Sydney,Northern Beaches,15990,Mackellar,Outer Metropolitan
112,2099,1967,7937,21.9,11491,7931,3431,129,1736,230,1,121618,"778,353",157.3,4436,CROMER,NSW,151.279999,-33.748914,FRENCHS FOREST DEL FAC-DEL,Delivery Area,Updated 6-Feb-2020,12203,Warringah,122,Sydney - Northern Beaches,R1,-33.74142,151.28227,12203142509,12203142509,122031425,Cromer,12203,Warringah,122,Sydney - Northern Beaches,1,1,1,1,Mackellar,68.31137085,N1,PHN102,Northern Sydney,Northern Beaches,15990,Warringah,Inner Metropolitan
113,2100,1699,6130,23.4,12298,6704,5161,433,1433,264,2,130330,"834,111",169.5,4443,ALLAMBIE,NSW,151.257781,-33.766409,FRENCHS FOREST DEL FAC-DEL,Delivery Area,Updated 6-Feb-2020,12203,Warringah,122,Sydney - Northern Beaches,R1,-33.7624,151.25,12203143014,12203143014,122031430,Manly Vale - Allambie Heights,12203,Warringah,122,Sydney - Northern Beaches,1,1,1,1,Warringah,,N1,PHN102,Northern Sydney,Willoughby,18250,Warringah,Inner Metropolitan
114,2101,1136,4913,19.8,6725,4319,2406,0,973,163,0,83974,"537,436",108.2,4450,ELANORA HEIGHTS,NSW,151.27114,-33.707117,FRENCHS FOREST DEL FAC-DEL,Delivery Area,Updated 6-Feb-2020,12203,Warringah,122,Sydney - Northern Beaches,R1,-33.70102,151.2789,12202142105,12202142105,122021421,Bayview - Elanora Heights,12202,Pittwater,122,Sydney - Northern Beaches,1,1,1,1,Mackellar,6.180784225,N1,PHN102,Northern Sydney,Northern Beaches,15990,Mackellar,Outer Metropolitan
115,2102,651,2055,28.6,3935,2643,1292,0,588,63,0,39911,"255,431",51.7,4455,WARRIEWOOD,NSW,151.290953,-33.689941,FRENCHS FOREST DEL FAC-DEL,Delivery Area,Updated 6-Feb-2020,12202,Pittwater,122,Sydney - Northern Beaches,R1,-33.6881414,151.2947775,12202142328,12202142350,122021423,Warriewood - Mona Vale,12202,Pittwater,122,Sydney - Northern Beaches,1,1,1,1,Mackellar,6.818304062,N1,PHN102,Northern Sydney,Northern Beaches,15990,Mackellar,Outer Metropolitan
116,2103,739,3031,20.5,5276,2966,2310,0,620,119,0,56117,"359,147",72.7,4183,MONA VALE,NSW,151.302825,-33.679336,FRENCHS FOREST DEL FAC-DEL,Delivery Area,Updated 6-Feb-2020,12202,Pittwater,122,Sydney - Northern Beaches,R1,-33.6757024,151.3064407,12202142340,12202142340,122021423,Warriewood - Mona Vale,12202,Pittwater,122,Sydney - Northern Beaches,1,1,1,1,Mackellar,,N1,PHN102,Northern Sydney,Northern Beaches,15990,Mackellar,Outer Metropolitan
117,2104,279,1837,11.9,1992,1033,959,0,218,61,0,19304,"123,544",24.9,4184,BAYVIEW,NSW,151.290921,-33.664921,FRENCHS FOREST DEL FAC-DEL,Delivery Area,Updated 6-Feb-2020,12202,Pittwater,122,Sydney - Northern Beaches,R1,-33.6610245,151.2889461,12202142108,12202142108,122021421,Bayview - Elanora Heights,12202,Pittwater,122,Sydney - Northern Beaches,1,1,1,1,Mackellar,51.24516296,N1,PHN102,Northern Sydney,Northern Beaches,15990,Mackellar,Outer Metropolitan
118,2105,139,1026,11.5,831,556,275,0,118,21,0,7940,"50,817",10.3,4185,CHURCH POINT,NSW,151.278293,-33.642202,FRENCHS FOREST DEL FAC-DEL,Delivery Area,Updated 6-Feb-2020,12202,Pittwater,122,Sydney - Northern Beaches,R1,-33.6544,151.2791,12202142112,12202142112,122021421,Bayview - Elanora Heights,12202,Pittwater,122,Sydney - Northern Beaches,1,1,1,1,Mackellar,,N1,PHN102,Northern Sydney,Northern Beaches,15990,Mackellar,Outer Metropolitan
119,2106,515,2804,15.3,3130,1967,1163,0,430,85,0,37801,"241,929",48.8,4189,NEWPORT,NSW,151.314599,-33.660707,FRENCHS FOREST DEL FAC-DEL,Delivery Area,Updated 6-Feb-2020,12202,Pittwater,122,Sydney - Northern Beaches,R1,-33.6566564,151.3122727,12202142217,12202142217,122021422,Newport - Bilgola,12202,Pittwater,122,Sydney - Northern Beaches,1,1,1,1,Mackellar,,N1,PHN102,Northern Sydney,Northern Beaches,15990,Mackellar,Outer Metropolitan
120,2107,1016,5130,16.8,6385,4174,2211,0,862,154,0,66700,"426,883",86.2,4191,AVALON,NSW,151.323289,-33.634816,FRENCHS FOREST DEL FAC-DEL,Delivery Area,Updated 6-Feb-2020,12202,Pittwater,122,Sydney - Northern Beaches,R1,-33.6303,151.33,12202142015,12202142015,122021420,Avalon - Palm Beach,12202,Pittwater,122,Sydney - Northern Beaches,1,1,1,1,Mackellar,,N1,PHN102,Northern Sydney,Northern Beaches,15990,Mackellar,Outer Metropolitan
121,2108,142,1242,9.3,854,532,322,0,115,27,0,18828,"120,498",24.3,4201,COASTERS RETREAT,NSW,151.322759,-33.60382,FRENCHS FOREST DEL FAC-DEL,Delivery Area,Updated 6-Feb-2020,12202,Pittwater,122,Sydney - Northern Beaches,R1,-33.605,151.299,12202142119,12202142119,122021421,Bayview - Elanora Heights,12202,Pittwater,122,Sydney - Northern Beaches,2,2,2,2,Mackellar,,N1,PHN102,Northern Sydney,Northern Beaches,15990,Mackellar,Outer Metropolitan
122,2109,1,239,0,21,0,21,0,0,1,0,0,0,0,4207,MACQUARIE UNIVERSITY,NSW,151.113473,-33.771558,NORTH RYDE DC,LVR,Updated 6-Feb-2020,12602,Ryde - Hunters Hill,126,Sydney - Ryde,R1,-33.7738237,151.1126498,12602150022,12602150022,126021500,Macquarie Park - Marsfield,12602,Ryde - Hunters Hill,126,Sydney - Ryde,1,1,1,1,Bennelong,55.63050461,N1,PHN102,Northern Sydney,Ryde,16700,Bennelong,
123,2110,530,2838,15.6,3450,2176,1274,0,444,86,0,40698,"260,466",52.4,4208,HUNTERS HILL,NSW,151.149126,-33.836102,ST LEONARDS DEL FAC CPM,Delivery Area,Updated 6-Feb-2020,12602,Ryde - Hunters Hill,126,Sydney - Ryde,R1,-33.8337,151.14366,12602149905,12602149905,126021499,Hunters Hill - Woolwich,12602,Ryde - Hunters Hill,126,Sydney - Ryde,1,1,1,1,North Sydney,36.30486679,N1,PHN102,Northern Sydney,Hunters Hill,14100,Bennelong,
124,2111,813,4205,16.4,5198,3307,1891,0,691,122,0,58567,"374,831",75.7,4211,BORONIA PARK,NSW,151.124488,-33.829953,BORONIA PARK LPO,Delivery Area,Updated 6-Feb-2020,12602,Ryde - Hunters Hill,126,Sydney - Ryde,R1,-33.8257071,151.1397958,12602149913,12602149913,126021499,Hunters Hill - Woolwich,12602,Ryde - Hunters Hill,126,Sydney - Ryde,1,1,1,1,Bennelong,37.96727371,N1,PHN102,Northern Sydney,Hunters Hill,14100,Bennelong,Inner Metropolitan
125,2112,1689,8301,17.7,10567,6806,3461,300,1473,215,1,110888,"709,680",142.7,4218,DENISTONE EAST,NSW,151.108447,-33.81658,NORTH RYDE DC,Delivery Area,Updated 6-Feb-2020,12602,Ryde - Hunters Hill,126,Sydney - Ryde,R1,-33.79885,151.09948,12602149740,12602149740,126021497,Eastwood - Denistone,12602,Ryde - Hunters Hill,126,Sydney - Ryde,1,1,1,1,Bennelong,,N1,PHN102,Northern Sydney,Ryde,16700,Bennelong,Inner Metropolitan
126,2113,1189,5199,19.7,10323,4828,4642,853,1025,160,4,115638,"740,082",148.8,4221,BLENHEIM ROAD,NSW,151.130233,-33.79419,NORTH RYDE DC,Delivery Area,Updated 6-Feb-2020,12602,Ryde - Hunters Hill,126,Sydney - Ryde,R1,-33.79876,151.1337043,12602150118,12602150118,126021501,North Ryde - East Ryde,12602,Ryde - Hunters Hill,126,Sydney - Ryde,1,1,1,1,Bennelong,54.92295456,N1,PHN102,Northern Sydney,Ryde,16700,Bennelong,Inner Metropolitan
127,2114,1121,5238,18.9,6817,4346,2207,264,991,129,1,85572,"547,658",110.8,4226,DENISTONE,NSW,151.084181,-33.810991,NORTH RYDE DC,Delivery Area,Updated 6-Feb-2020,12602,Ryde - Hunters Hill,126,Sydney - Ryde,R1,-33.80085,151.08648,12602149702,12602149702,126021497,Eastwood - Denistone,12602,Ryde - Hunters Hill,126,Sydney - Ryde,1,1,1,1,Bennelong,12.49442959,N1,PHN103,Western Sydney,Ryde,16700,Bennelong,Inner Metropolitan
128,2115,700,4142,15,4098,2890,1208,0,621,79,0,40581,"259,721",52.4,4231,ERMINGTON,NSW,151.059845,-33.813106,RYDALMERE DC,Delivery Area,Updated 6-Feb-2020,12502,Carlingford,125,Sydney - Parramatta,R1,-33.8132521,151.0616918,12502147744,12502147744,125021477,Ermington - Rydalmere,12502,Carlingford,125,Sydney - Parramatta,1,1,1,1,Bennelong,,N1,PHN103,Western Sydney,Parramatta,16260,Parramatta,Inner Metropolitan
129,2116,402,2665,12.1,4760,1413,2148,1199,323,76,3,68152,"436,175",89.7,4232,RYDALMERE,NSW,151.036941,-33.814368,RYDALMERE DC,Delivery Area,Updated 6-Feb-2020,12502,Carlingford,125,Sydney - Parramatta,R1,-33.8124093,151.0384023,12502147739,12502147739,125021477,Ermington - Rydalmere,12502,Carlingford,125,Sydney - Parramatta,1,1,1,1,Parramatta,10.22639275,N1,PHN103,Western Sydney,Parramatta,16260,Parramatta,Inner Metropolitan
130,2117,1250,7849,13.8,7511,4984,2527,0,1082,168,0,65214,"417,369",83.9,4233,DUNDAS,NSW,151.04218,-33.797127,PARRAMATTA DC,Delivery Area,Updated 6-Feb-2020,12504,Parramatta,125,Sydney - Parramatta,R1,-33.80404,151.0351,12502147743,12502147743,125021477,Ermington - Rydalmere,12502,Carlingford,125,Sydney - Parramatta,1,1,1,1,Parramatta,,N1,PHN103,Western Sydney,Parramatta,16260,Parramatta,Inner Metropolitan
131,2118,1934,6710,25.6,9971,7133,2838,0,1716,218,0,89403,"572,181",115,4237,CARLINGFORD,NSW,151.043518,-33.775596,CARLINGFORD NORTH LPO,Delivery Area,Updated 6-Feb-2020,12602,Ryde - Hunters Hill,126,Sydney - Ryde,R1,-33.7799114,151.0413133,12502147630,12502147630,125021476,Carlingford,12502,Carlingford,125,Sydney - Parramatta,1,1,1,1,Parramatta,93.21886444,N1,PHN103,Western Sydney,Parramatta,16260,Parramatta,Inner Metropolitan
132,2119,899,3767,20.5,5366,3698,1668,0,774,125,0,44517,"284,909",57.3,4241,BEECROFT,NSW,151.064176,-33.755499,THORNLEIGH DC,Delivery Area,Updated 6-Feb-2020,12601,Pennant Hills - Epping,126,Sydney - Ryde,R1,-33.7511096,151.0651688,12601149628,12601149628,126011496,Pennant Hills - Cheltenham,12601,Pennant Hills - Epping,126,Sydney - Ryde,1,1,1,1,Berowra,,N1,PHN102,Northern Sydney,Parramatta,16260,Berowra,Outer Metropolitan
133,2120,1584,6858,20,10223,6492,3731,0,1369,215,0,87458,"559,734",112.9,4243,PENNANT HILLS,NSW,151.07359,-33.731105,THORNLEIGH DC,Delivery Area,Updated 6-Feb-2020,12601,Pennant Hills - Epping,126,Sydney - Ryde,R1,-33.738881,151.0723841,12601149602,12601149602,126011496,Pennant Hills - Cheltenham,12601,Pennant Hills - Epping,126,Sydney - Ryde,1,1,1,1,Berowra,,N1,PHN102,Northern Sydney,Ku-ring-gai,14500,Berowra,Outer Metropolitan
134,2121,1865,7491,22.5,10011,7528,2483,0,1682,183,0,98088,"627,764",126.2,4246,EPPING,NSW,151.079919,-33.774145,NORTH RYDE DC,Delivery Area,Updated 6-Feb-2020,12602,Ryde - Hunters Hill,126,Sydney - Ryde,R1,-33.7746,151.0788,12601149519,12601149519,126011495,Epping - North Epping,12601,Pennant Hills - Epping,126,Sydney - Ryde,1,1,1,1,Bennelong,,N1,PHN103,Western Sydney,Ryde,16700,Bennelong,Inner Metropolitan
135,2122,1739,9953,15.8,8945,6379,2566,0,1572,167,0,100212,"641,354",129,4248,EASTWOOD,NSW,151.092072,-33.791357,NORTH RYDE DC,Delivery Area,Updated 6-Feb-2020,12602,Ryde - Hunters Hill,126,Sydney - Ryde,R1,-33.790362,151.081731,12602149721,12602149721,126021497,Eastwood - Denistone,12602,Ryde - Hunters Hill,126,Sydney - Ryde,1,1,1,1,Bennelong,77.86849976,N1,PHN103,Western Sydney,Ryde,16700,Bennelong,Inner Metropolitan
136,2125,1945,5455,29.9,11466,7454,4012,0,1631,314,0,75949,"486,074",97.7,4252,WEST PENNANT HILLS,NSW,151.031807,-33.752645,DURAL DC,Delivery Area,Updated 6-Feb-2020,12601,Pennant Hills - Epping,126,Sydney - Ryde,R1,-33.7462388,151.0296696,11501129608,11501129608,115011296,West Pennant Hills,11501,Baulkham Hills,115,Sydney - Baulkham Hills and Hawkesbury,1,1,1,1,Berowra,77.99344635,N1,PHN103,Western Sydney,Parramatta,16260,Mitchell,Outer Metropolitan
137,2126,2165,5911,32.9,11645,8769,2876,0,1946,219,0,74935,"479,583",96.4,4253,CHERRYBROOK,NSW,151.043941,-33.724898,DURAL DC,Delivery Area,Updated 6-Feb-2020,12601,Pennant Hills - Epping,126,Sydney - Ryde,R1,-33.7287467,151.0413133,11501129307,11501155802,115011558,Cherrybrook,11501,Baulkham Hills,115,Sydney - Baulkham Hills and Hawkesbury,1,1,1,1,Berowra,,N1,PHN102,Northern Sydney,Parramatta,16260,Berowra,Outer Metropolitan
138,2127,146,1153,9.8,2558,586,1710,262,113,31,2,55536,"355,428",71.3,4254,HOMEBUSH BAY,NSW,151.076186,-33.85283,LIDCOMBE DELIVERY CENTRE,Delivery Area,Updated 6-Feb-2020,12501,Auburn,125,Sydney - Parramatta,R1,-33.8321521,151.0806171,12501147312,12501147312,125011473,Homebush Bay - Silverwater,12501,Auburn,125,Sydney - Parramatta,1,1,1,1,Reid,6.097576618,N1,PHN103,Western Sydney,Strathfield,17100,Reid,Inner Metropolitan
139,2128,166,686,11.5,3873,346,3131,396,79,85,2,77746,"497,576",103.1,4256,SILVERWATER,NSW,151.047591,-33.835928,LIDCOMBE DELIVERY CENTRE,Delivery Area,Updated 6-Feb-2020,12501,Auburn,125,Sydney - Parramatta,R1,-33.8343506,151.0442244,12501147317,12501147317,125011473,Homebush Bay - Silverwater,12501,Auburn,125,Sydney - Parramatta,1,1,1,1,Reid,6.612176895,N1,PHN103,Western Sydney,Parramatta,16260,Reid,Inner Metropolitan
140,2130,220,1170,17,1398,910,488,0,199,21,0,22315,"142,817",28.8,4258,SUMMER HILL,NSW,151.135883,-33.892783,CROYDON PARK DC,Delivery Area,Updated 6-Feb-2020,12003,Strathfield - Burwood - Ashfield,120,Sydney - Inner West,R1,-33.8922971,151.1359504,12003139520,12003139520,120031395,Haberfield - Summer Hill,12003,Strathfield - Burwood - Ashfield,120,Sydney - Inner West,1,1,1,1,Grayndler,,N1,PHN101,Central and Eastern Sydney,Inner West,14170,Watson,Inner Metropolitan
141,2131,587,3044,17.4,3562,2153,1409,0,531,56,0,58298,"373,106",75.1,4259,ASHFIELD,NSW,151.124008,-33.887602,CROYDON PARK DC,Delivery Area,Updated 6-Feb-2020,12003,Strathfield - Burwood - Ashfield,120,Sydney - Inner West,R1,-33.8904917,151.1254852,12003139007,12003139007,120031390,Ashfield,12003,Strathfield - Burwood - Ashfield,120,Sydney - Inner West,1,1,1,1,Grayndler,,N1,PHN101,Central and Eastern Sydney,Burwood,11300,Watson,Inner Metropolitan
142,2132,511,2784,16.7,3097,1988,859,250,464,46,1,39496,"252,775",50.9,4260,CROYDON,NSW,151.113385,-33.882419,CROYDON PARK DC,Delivery Area,Updated 6-Feb-2020,12003,Strathfield - Burwood - Ashfield,120,Sydney - Inner West,R1,-33.8828873,151.114106,12003139115,12003139115,120031391,Burwood - Croydon,12003,Strathfield - Burwood - Ashfield,120,Sydney - Inner West,1,1,1,1,Reid,,N1,PHN101,Central and Eastern Sydney,Burwood,11300,Watson,Inner Metropolitan
143,2133,490,3237,13.5,2606,1902,704,0,437,53,0,36563,"234,003",47.1,4261,CROYDON PARK,NSW,151.102087,-33.898793,CROYDON PARK DC,Delivery Area,Updated 6-Feb-2020,12003,Strathfield - Burwood - Ashfield,120,Sydney - Inner West,R1,-33.8967345,151.1082813,12003139312,12003139312,120031393,Croydon Park - Enfield,12003,Strathfield - Burwood - Ashfield,120,Sydney - Inner West,1,1,1,1,Watson,,N1,PHN101,Central and Eastern Sydney,Burwood,11300,Watson,Inner Metropolitan
144,2134,398,2240,15.4,2420,1370,1050,0,344,54,0,43842,"280,591",56.4,4263,BURWOOD,NSW,151.101757,-33.880049,BURWOOD NORTH LPO,Delivery Area,Updated 6-Feb-2020,12003,Strathfield - Burwood - Ashfield,120,Sydney - Inner West,R1,-33.8799121,151.1024569,12003139106,12003139106,120031391,Burwood - Croydon,12003,Strathfield - Burwood - Ashfield,120,Sydney - Inner West,1,1,1,1,Reid,34.00363159,N1,PHN101,Central and Eastern Sydney,Burwood,11300,Reid,Inner Metropolitan
145,2135,1124,4686,19,8153,4173,3980,0,892,232,0,81996,"524,771",105.7,4265,STRATHFIELD,NSW,151.084759,-33.881009,LIDCOMBE DELIVERY CENTRE,Delivery Area,Updated 6-Feb-2020,12003,Strathfield - Burwood - Ashfield,120,Sydney - Inner West,R1,-33.8808808,151.0762495,12003139757,12003157531,120031575,Strathfield,12003,Strathfield - Burwood - Ashfield,120,Sydney - Inner West,1,1,1,1,Reid,,N1,PHN101,Central and Eastern Sydney,Strathfield,17100,Reid,Inner Metropolitan
146,2136,388,2000,16,3401,1410,1771,220,320,67,1,48260,"308,863",63.1,4266,BURWOOD HEIGHTS,NSW,151.087741,-33.892944,LIDCOMBE DELIVERY CENTRE,Delivery Area,Updated 6-Feb-2020,12003,Strathfield - Burwood - Ashfield,120,Sydney - Inner West,R1,-33.8902,151.1052,12003139333,12003139333,120031393,Croydon Park - Enfield,12003,Strathfield - Burwood - Ashfield,120,Sydney - Inner West,1,1,1,1,Watson,,N1,PHN101,Central and Eastern Sydney,Strathfield,17100,Watson,Inner Metropolitan
147,2137,1210,6108,16.9,7778,4794,2785,199,1033,176,1,91310,"584,384",117.7,4269,BREAKFAST POINT,NSW,151.103751,-33.85749,LIDCOMBE DELIVERY CENTRE,Delivery Area,Updated 6-Feb-2020,12003,Strathfield - Burwood - Ashfield,120,Sydney - Inner West,R1,-33.844,151.1129,12001138349,12001138349,120011383,Concord - Mortlake - Cabarita,12001,Canada Bay,120,Sydney - Inner West,1,1,1,1,Reid,,N1,PHN101,Central and Eastern Sydney,Canada Bay,11520,Reid,Inner Metropolitan
148,2138,550,2424,19.7,5298,2169,1666,1463,477,71,2,54229,"347,064",70,4274,CONCORD WEST,NSW,151.086036,-33.846098,LIDCOMBE DELIVERY CENTRE,Delivery Area,Updated 6-Feb-2020,12001,Canada Bay,120,Sydney - Inner West,R1,-33.8462611,151.0908086,12001138433,12001138433,120011384,Concord West - North Strathfield,12001,Canada Bay,120,Sydney - Inner West,1,1,1,1,Reid,13.20294952,N1,PHN101,Central and Eastern Sydney,Canada Bay,11520,Reid,Inner Metropolitan
149,2140,251,1213,16.6,6718,839,1481,4398,201,45,5,63818,"408,436",82.8,4278,HOMEBUSH,NSW,151.070853,-33.835018,LIDCOMBE DELIVERY CENTRE,Delivery Area,Updated 6-Feb-2020,12003,Strathfield - Burwood - Ashfield,120,Sydney - Inner West,R1,-33.858623,151.0791612,12003139620,12003139620,120031396,Homebush,12003,Strathfield - Burwood - Ashfield,120,Sydney - Inner West,1,1,1,1,Reid,7.464366913,N1,PHN101,Central and Eastern Sydney,Canada Bay,11520,Reid,Inner Metropolitan
150,2141,1643,7119,20.8,9700,5886,3374,440,1482,159,2,141278,"904,181",182.9,4281,BERALA,NSW,151.044768,-33.872483,LIDCOMBE DELIVERY CENTRE,Delivery Area,Updated 6-Feb-2020,12501,Auburn,125,Sydney - Parramatta,R1,-33.87487,151.03073,12501147425,12501158515,125011585,Berala,12501,Auburn,125,Sydney - Parramatta,1,1,1,1,Blaxland,,N1,PHN103,Western Sydney,Strathfield,17100,Watson,Inner Metropolitan
151,2142,982,5624,15.1,7317,3571,3250,496,847,133,2,150307,"961,964",196.3,4285,BLAXCELL,NSW,151.015196,-33.832747,BLAXCELL LPO,Delivery Area,Updated 6-Feb-2020,12504,Parramatta,125,Sydney - Parramatta,R1,-33.8504194,151.0086307,12503148339,12503148339,125031483,Guildford - South Granville,12503,Merrylands - Guildford,125,Sydney - Parramatta,1,1,1,1,Parramatta,5.958925724,N1,PHN103,Western Sydney,Cumberland,12380,Parramatta,Inner Metropolitan
152,2143,621,2528,21.7,3785,2328,1457,0,549,72,0,55944,"358,041",72.9,4290,BIRRONG,NSW,151.021934,-33.885382,LEIGHTONFIELD DF,Delivery Area,Updated 6-Feb-2020,12501,Auburn,125,Sydney - Parramatta,R1,-33.893,151.023,11901136136,11901136136,119011361,Yagoona - Birrong,11901,Bankstown,119,Sydney - Inner South West,1,1,1,1,Blaxland,28.63210678,N1,PHN105,South Western Sydney,Canterbury-Bankstown,11570,Blaxland,Inner Metropolitan
153,2144,1505,6757,18.5,11087,5234,5592,261,1251,253,1,146761,"939,271",190.4,4293,AUBURN,NSW,151.026756,-33.851868,LEIGHTONFIELD DF,Delivery Area,Updated 6-Feb-2020,12501,Auburn,125,Sydney - Parramatta,R1,-33.8485157,151.0296696,12501147219,12501158204,125011582,Auburn - Central,12501,Auburn,125,Sydney - Parramatta,1,1,1,1,Blaxland,,N1,PHN103,Western Sydney,Cumberland,12380,Reid,Inner Metropolitan
154,2145,5728,21805,23.4,35622,21795,11981,1846,5093,628,7,361482,"2,313,488",468.8,20224,CONSTITUTION HILL,NSW,150.9751544,-33.79382308,Sydney Metro,Delivery Area,Updated 6-Feb-2020,12504,Parramatta,125,Sydney - Parramatta,R1,-33.7945,150.976,12504149305,12504149305,125041493,Toongabbie - Constitution Hill,12504,Parramatta,125,Sydney - Parramatta,1,1,1,1,Parramatta,,N1,PHN103,Western Sydney,Parramatta,16260,Parramatta,Inner Metropolitan
155,2146,1635,5836,25.9,8971,6468,1968,535,1513,121,1,66047,"422,704",85.1,3042,OLD TOONGABBIE,NSW,150.959508,-33.789374,SEVEN HILLS DF,Delivery Area,Updated 6-Feb-2020,12504,Parramatta,125,Sydney - Parramatta,R1,-33.787,150.966,12504149320,12504149320,125041493,Toongabbie - Constitution Hill,12504,Parramatta,125,Sydney - Parramatta,1,1,1,1,Parramatta,,N1,PHN103,Western Sydney,Cumberland,12380,Parramatta,Inner Metropolitan
156,2147,3881,13576,26,21898,14889,6517,492,3527,351,3,217098,"1,389,429",281.8,3045,KINGS LANGLEY,NSW,150.935836,-33.766075,SEVEN HILLS DF,Delivery Area,Updated 6-Feb-2020,11601,Blacktown,116,Sydney - Blacktown,R1,-33.7499763,150.9345044,11601130746,11601130746,116011307,Lalor Park - Kings Langley,11601,Blacktown,116,Sydney - Blacktown,1,1,1,1,Greenway,,N1,PHN103,Western Sydney,Blacktown,10750,Greenway,Outer Metropolitan
157,2148,5901,20107,26.6,38453,22628,13370,2455,5343,551,7,417923,"2,674,710",543.2,2770,ARNDELL PARK,NSW,150.900547,-33.783751,SEVEN HILLS DF,Delivery Area,Updated 6-Feb-2020,12702,Fairfield,127,Sydney - South West,R1,-33.79,150.876,11603131801,11603131801,116031318,Prospect Reservoir,11603,Mount Druitt,116,Sydney - Blacktown,1,1,1,1,Greenway,,N1,PHN103,Western Sydney,Blacktown,10750,McMahon,Outer Metropolitan
158,2150,343,2444,11.5,3014,1231,1783,0,281,62,0,80409,"514,619",103.5,2777,HARRIS PARK,NSW,151.006506,-33.814463,PARRAMATTA DC,Delivery Area,Updated 6-Feb-2020,12504,Parramatta,125,Sydney - Parramatta,R1,-33.8219453,151.0107506,12504149234,12504149234,125041492,Parramatta - Rosehill,12504,Parramatta,125,Sydney - Parramatta,1,1,1,1,Parramatta,9.193656921,N1,PHN103,Western Sydney,Parramatta,16260,Parramatta,Inner Metropolitan
159,2151,1209,4980,20.4,8569,4689,3311,569,1018,188,3,92158,"589,813",119.1,2780,NORTH PARRAMATTA,NSW,151.012511,-33.78709,PARRAMATTA DC,Delivery Area,Updated 6-Feb-2020,12504,Parramatta,125,Sydney - Parramatta,R1,-33.800281,151.0042445,12504148920,12504148920,125041489,North Parramatta,12504,Parramatta,125,Sydney - Parramatta,1,1,1,1,Parramatta,56.74320602,N1,PHN103,Western Sydney,Parramatta,16260,Parramatta,Inner Metropolitan
160,2152,710,3323,19,4223,2752,1471,0,632,78,0,55812,"357,196",72.4,2782,NORTHMEAD,NSW,150.996388,-33.782501,PARRAMATTA DC,Delivery Area,Updated 6-Feb-2020,12504,Parramatta,125,Sydney - Parramatta,R1,-33.78974,150.9921094,12504149129,12504149143,125041491,Northmead,12504,Parramatta,125,Sydney - Parramatta,1,1,1,1,Mitchell,58.21505737,N1,PHN103,Western Sydney,Parramatta,16260,Parramatta,Inner Metropolitan
161,2153,6504,18151,31.3,38437,25458,11556,1423,5680,820,4,271214,"1,735,770",349.2,2783,BAULKHAM HILLS,NSW,150.955942,-33.731651,SEVEN HILLS DF,Delivery Area,Updated 4-Dec-2022,12504,Parramatta,125,Sydney - Parramatta,R1,-33.7619106,150.9929255,11501129038,11501129038,115011290,Baulkham Hills (East),11501,Baulkham Hills,115,Sydney - Baulkham Hills and Hawkesbury,1,1,1,1,Mitchell,74.63219452,N1,PHN103,Western Sydney,Blacktown,10750,Mitchell,Outer Metropolitan
162,2154,4042,12192,28,26014,15893,9471,650,3416,625,1,218704,"1,399,707",282.5,2787,CASTLE HILL,NSW,151.000948,-33.73238,DURAL DC,Delivery Area,Updated 6-Feb-2020,11501,Baulkham Hills,115,Sydney - Baulkham Hills and Hawkesbury,R1,-33.7270691,150.9947439,11501129238,11501155518,115011555,Castle Hill - North,11501,Baulkham Hills,115,Sydney - Baulkham Hills and Hawkesbury,1,1,1,1,Mitchell,131.9633484,N1,PHN103,Western Sydney,Parramatta,16260,Mitchell,Outer Metropolitan
163,2155,10045,20177,41.3,66866,42954,23206,706,8328,1715,2,269226,"1,723,049",346.7,2788,BEAUMONT HILLS,NSW,150.931074,-33.731523,SEVEN HILLS DF,Delivery Area,Updated 6-Feb-2020,11602,Blacktown - North,116,Sydney - Blacktown,R1,-33.7,150.941,11504130205,11504130205,115041302,Rouse Hill - Beaumont Hills,11504,Rouse Hill - McGraths Hill,115,Sydney - Baulkham Hills and Hawkesbury,1,1,1,1,Mitchell,-3492,N1,PHN103,Western Sydney,Blacktown,10750,Mitchell,Outer Metropolitan
164,2156,1819,4302,29.1,14694,5385,9309,0,1253,566,0,127171,"813,897",163.3,2792,ANNANGROVE,NSW,150.974528,-33.656984,DURAL DC,Delivery Area,Updated 6-Feb-2020,11502,Dural - Wisemans Ferry,115,Sydney - Baulkham Hills and Hawkesbury,R1,-33.65255,150.94096,11502129751,11502129751,115021297,Dural - Kenthurst - Wisemans Ferry,11502,Dural - Wisemans Ferry,115,Sydney - Baulkham Hills and Hawkesbury,1,1,1,1,Berowra,102.7757645,N1,PHN103,Western Sydney,The Hills Shire,17420,Mitchell,Outer Metropolitan
165,2157,483,1192,27.4,4382,1496,2886,0,327,156,0,62897,"402,539",81.5,2795,CANOELANDS,NSW,150.991055,-33.602167,DURAL DC,Delivery Area,Updated 6-Feb-2020,11502,Dural - Wisemans Ferry,115,Sydney - Baulkham Hills and Hawkesbury,R1,-33.50824,151.06178,11502129705,11502129705,115021297,Dural - Kenthurst - Wisemans Ferry,11502,Dural - Wisemans Ferry,115,Sydney - Baulkham Hills and Hawkesbury,2,2,5,5,Berowra,109.287796,N1,PHN103,Western Sydney,The Hills Shire,17420,Berowra,Outer Metropolitan
166,2158,872,2856,21.6,7985,3151,4535,299,617,254,1,88279,"564,984",113.6,2799,DURAL,NSW,151.040358,-33.690331,DURAL DC,Delivery Area,Updated 6-Feb-2020,11502,Dural - Wisemans Ferry,115,Sydney - Baulkham Hills and Hawkesbury,R1,-33.682,151.029,11502129715,11502129715,115021297,Dural - Kenthurst - Wisemans Ferry,11502,Dural - Wisemans Ferry,115,Sydney - Baulkham Hills and Hawkesbury,1,1,1,1,Berowra,-3492,N1,PHN103,Western Sydney,Ku-ring-gai,14500,Berowra,Outer Metropolitan
167,2159,602,1628,27.1,4742,2162,2580,0,442,160,0,66315,"424,414",85.2,2802,ARCADIA,NSW,151.084146,-33.539148,DURAL DC,Delivery Area,Updated 6-Feb-2020,11502,Dural - Wisemans Ferry,115,Sydney - Baulkham Hills and Hawkesbury,R1,-33.62429,151.04455,11502129809,11502129809,115021298,Galston - Laughtondale,11502,Dural - Wisemans Ferry,115,Sydney - Baulkham Hills and Hawkesbury,2,2,2,2,Berowra,,N1,PHN102,Northern Sydney,Hornsby,14000,Berowra,Outer Metropolitan
168,2160,1662,8830,16.4,10786,6506,3171,1109,1451,210,1,118222,"756,624",152.2,2806,MERRYLANDS,NSW,150.976594,-33.835883,LEIGHTONFIELD DF,Delivery Area,Updated 6-Feb-2020,12504,Parramatta,125,Sydney - Parramatta,R1,-33.835802,150.9865196,12503148550,12503148550,125031485,Merrylands - Holroyd,12503,Merrylands - Guildford,125,Sydney - Parramatta,1,1,1,1,Parramatta,,N1,PHN103,Western Sydney,Cumberland,12380,Parramatta,Inner Metropolitan
169,2161,1838,8598,18.5,13117,6888,5109,1120,1589,247,2,180698,"1,156,468",235.8,2808,GUILDFORD,NSW,150.983724,-33.858335,LEIGHTONFIELD DF,Delivery Area,Updated 6-Feb-2020,12503,Merrylands - Guildford,125,Sydney - Parramatta,R1,-33.8557329,150.9950627,12503148324,12503148324,125031483,Guildford - South Granville,12503,Merrylands - Guildford,125,Sydney - Parramatta,1,1,1,1,McMahon,41.65041351,N1,PHN105,South Western Sydney,Cumberland,12380,Parramatta,Inner Metropolitan
170,2162,1226,5716,19.2,7480,4737,2743,0,1100,126,0,88474,"566,234",114.7,2812,CHESTER HILL,NSW,151.004128,-33.88349,LEIGHTONFIELD DF,Delivery Area,Updated 6-Feb-2020,12503,Merrylands - Guildford,125,Sydney - Parramatta,R1,-33.87838,151.00443,12503147907,12503147907,125031479,Chester Hill - Sefton,12503,Merrylands - Guildford,125,Sydney - Parramatta,1,1,1,1,Blaxland,33.13853073,N1,PHN105,South Western Sydney,Cumberland,12380,Blaxland,Inner Metropolitan
171,2163,519,2208,19.7,5146,1770,3178,198,434,84,1,79940,"511,614",104.9,2814,CARRAMAR,NSW,150.979458,-33.887203,LEIGHTONFIELD DF,Delivery Area,Updated 6-Feb-2020,12503,Merrylands - Guildford,125,Sydney - Parramatta,R1,-33.88605,150.96442,12503148012,12503148012,125031480,Fairfield - East,12503,Merrylands - Guildford,125,Sydney - Parramatta,1,1,1,1,Fowler,,N1,PHN105,South Western Sydney,Cumberland,12380,Fowler,Outer Metropolitan
172,2164,2115,6162,26.3,29094,6933,16627,5534,1621,481,13,411235,"2,631,902",542.4,2817,SMITHFIELD,NSW,150.875028,-33.844153,SMITHFIELD WEST LPO,Delivery Area,Updated 6-Feb-2020,12702,Fairfield,127,Sydney - South West,R1,-33.8535722,150.9406861,12702151939,12702151939,127021519,Smithfield - Wetherill Park,12702,Fairfield,127,Sydney - South West,1,1,1,1,McMahon,73.70684814,N1,PHN105,South Western Sydney,Fairfield,12850,McMahon,Outer Metropolitan
173,2165,2694,10309,23.4,15272,9240,5792,240,2411,282,1,169617,"1,085,548",219.3,2821,FAIRFIELD,NSW,150.947496,-33.872435,LEIGHTONFIELD DF,Delivery Area,Updated 6-Feb-2020,12702,Fairfield,127,Sydney - South West,R1,-33.8705856,150.9564102,12702151517,12702151517,127021515,Fairfield,12702,Fairfield,127,Sydney - South West,1,1,1,1,McMahon,,N1,PHN105,South Western Sydney,Fairfield,12850,McMahon,Outer Metropolitan
174,2166,3511,12918,24.8,17987,12459,5528,0,3199,312,0,185851,"1,189,448",239.4,2825,CABRAMATTA,NSW,150.92937,-33.892738,LEIGHTONFIELD DF,Delivery Area,Updated 6-Feb-2020,12702,Fairfield,127,Sydney - South West,R1,-33.8954675,150.9384081,12702151145,12702151145,127021511,Cabramatta - Lansvale,12702,Fairfield,127,Sydney - South West,1,1,1,1,Fowler,,N1,PHN105,South Western Sydney,Fairfield,12850,McMahon,Outer Metropolitan
175,2167,1123,3893,26.6,5778,4641,1137,0,1035,88,0,38476,"246,244",49.4,2830,GLENFIELD,NSW,150.890441,-33.972167,PRESTONS DC,Delivery Area,Updated 6-Feb-2020,12302,Campbelltown (NSW),123,Sydney - Outer South West,R1,-33.9690916,150.8929227,12302144202,12302144254,123021442,Macquarie Fields - Glenfield,12302,Campbelltown (NSW),123,Sydney - Outer South West,1,1,1,1,Werriwa,19.75891113,N1,PHN105,South Western Sydney,Liverpool,14900,Werriwa,Outer Metropolitan
176,2168,3812,12929,27.1,19370,14746,4424,200,3505,306,1,155010,"992,067",199.5,2831,ASHCROFT,NSW,150.875345,-33.915939,PRESTONS DC,Delivery Area,Updated 6-Feb-2020,12703,Liverpool,127,Sydney - South West,R1,-33.91447,150.8987392,12701150421,12701150421,127011504,Ashcroft - Busby - Miller,12701,Bringelly - Green Valley,127,Sydney - South West,1,1,1,1,Werriwa,44.22141647,N1,PHN105,South Western Sydney,Liverpool,14900,Werriwa,Outer Metropolitan
177,2170,9150,29463,27.2,67908,35003,25113,7792,8026,1113,11,640310,"4,097,986",833.8,2839,CASULA,NSW,150.921448,-33.928392,CASULA MALL LPO,Delivery Area,Updated 6-Feb-2020,12703,Liverpool,127,Sydney - South West,R1,-33.9503864,150.9044946,12703152214,12703152214,127031522,Casula,12703,Liverpool,127,Sydney - South West,1,1,1,1,Fowler,,N1,PHN105,South Western Sydney,Fairfield,12850,Werriwa,Outer Metropolitan
178,2171,4342,13250,28.4,27927,18818,7973,1136,3760,580,2,160246,"1,025,577",208.1,20225,CARNES HILL,NSW,150.8487366,-33.93771581,Sydney Metro,Delivery Area,Updated 6-Feb-2020,12703,Liverpool,127,Sydney - South West,R1,-33.9383,150.848,12701150813,12701159602,127011596,Hoxton Park - Carnes Hill - Horningsea Park,12701,Bringelly - Green Valley,127,Sydney - South West,1,1,1,1,Werriwa,43.51629639,N1,PHN105,South Western Sydney,Liverpool,14900,Werriwa,Outer Metropolitan
179,2172,404,1114,31.1,2426,1708,718,0,346,58,0,14192,"90,828",18.3,2855,PLEASURE POINT,NSW,150.917444,-33.951109,NARELLAN DC,Delivery Area,Updated 6-Feb-2020,12703,Liverpool,127,Sydney - South West,R1,-33.96776,150.978,12703152436,12703152436,127031524,Holsworthy - Wattle Grove,12703,Liverpool,127,Sydney - South West,1,1,1,1,Hughes,,N1,PHN105,South Western Sydney,Liverpool,14900,Hughes,Outer Metropolitan
180,2173,1518,4530,31.1,7763,6119,1446,198,1408,109,1,84951,"543,683",110.5,2858,HOLSWORTHY,NSW,150.919554,-34.074239,PRESTONS DC,Delivery Area,Updated 6-Feb-2020,12703,Liverpool,127,Sydney - South West,R1,-33.9565362,150.9498811,12703152419,12703152419,127031524,Holsworthy - Wattle Grove,12703,Liverpool,127,Sydney - South West,1,1,1,1,Hughes,,N1,PHN105,South Western Sydney,Campbelltown,11500,Hughes,Outer Metropolitan
181,2174,1544,1259,,13214,7997,3630,1587,1300,242,2,16004,"102,425",20.7,2860,EDMONDSON PARK,NSW,150.856709,-33.977497,,,Updated 6-Feb-2020,12703,Liverpool,127,Sydney - South West,R1,-33.9652,150.858,12703152648,12703160022,127031600,Prestons - Edmondson Park,12703,Liverpool,127,Sydney - South West,1,1,1,1,Werriwa,,N1,PHN105,South Western Sydney,Liverpool,14900,Werriwa,Outer Metropolitan
182,2175,257,586,21.7,7002,679,3604,2719,127,126,4,53018,"339,316",68.9,2862,HORSLEY PARK,NSW,150.848192,-33.845034,PRESTONS DC,Delivery Area,Updated 6-Feb-2020,12702,Fairfield,127,Sydney - South West,R1,-33.848126,150.8493059,12702151805,12702151805,127021518,Horsley Park - Kemps Creek,12702,Fairfield,127,Sydney - South West,1,1,1,1,McMahon,,N1,PHN105,South Western Sydney,Fairfield,12850,McMahon,Outer Metropolitan
183,2176,4850,14588,29.5,27846,18700,8163,983,4302,546,2,205304,"1,313,948",264.3,2863,ABBOTSBURY,NSW,150.88526,-33.872014,LEIGHTONFIELD DF,Delivery Area,Updated 6-Feb-2020,12702,Fairfield,127,Sydney - South West,R1,-33.875,150.862,12702151028,12702151028,127021510,Bossley Park - Abbotsbury,12702,Fairfield,127,Sydney - South West,1,1,1,1,Fowler,44.55105972,N1,PHN105,South Western Sydney,Fairfield,12850,McMahon,Outer Metropolitan
184,2177,1637,4825,30.9,8795,6493,2302,0,1492,145,0,64073,"410,064",82.4,2870,BONNYRIGG,NSW,150.879379,-33.895053,PRESTONS DC,Delivery Area,Updated 6-Feb-2020,12702,Fairfield,127,Sydney - South West,R1,-33.89812,150.89006,12702150925,12702150925,127021509,Bonnyrigg Heights - Bonnyrigg,12702,Fairfield,127,Sydney - South West,1,1,1,1,Werriwa,48.04270172,N1,PHN105,South Western Sydney,Fairfield,12850,Werriwa,Outer Metropolitan
185,2178,453,1252,20.6,9151,1230,4159,3762,258,190,5,97505,"624,029",125.9,2872,CECIL PARK,NSW,150.838225,-33.87478,NARELLAN DC,Delivery Area,Updated 6-Feb-2020,12702,Fairfield,127,Sydney - South West,R1,-33.87297,150.83823,12702151810,12702151810,127021518,Horsley Park - Kemps Creek,12702,Fairfield,127,Sydney - South West,1,1,1,1,McMahon,114.6386566,N1,PHN105,South Western Sydney,Fairfield,12850,Werriwa,Outer Metropolitan
186,2179,2445,2558,76.6,20222,12536,6992,694,1960,484,1,109710,"702,143",142.2,2875,AUSTRAL,NSW,150.812031,-33.933109,NARELLAN DC,Delivery Area,Updated 6-Feb-2020,12701,Bringelly - Green Valley,127,Sydney - South West,R1,-33.93109,150.79361,12701150502,12701150502,127011505,Austral - Greendale,12701,Bringelly - Green Valley,127,Sydney - South West,1,1,1,1,Macarthur,82.47470093,N1,PHN105,South Western Sydney,Liverpool,14900,Werriwa,Outer Metropolitan
187,2190,1509,7970,15.9,14773,5472,5535,3766,1271,234,4,171775,"1,099,362",224.4,2877,CHULLORA,NSW,151.053858,-33.901925,LAKEMBA DC,Delivery Area,Updated 6-Feb-2020,12003,Strathfield - Burwood - Ashfield,120,Sydney - Inner West,R1,-33.8908,151.0475,11901135501,11901135501,119011355,Chullora,11901,Bankstown,119,Sydney - Inner South West,1,1,1,1,Watson,39.59130478,N1,PHN105,South Western Sydney,Canterbury-Bankstown,11570,Watson,Inner Metropolitan
188,2191,313,2113,13.1,1735,1209,526,0,276,37,0,23908,"153,010",30.8,2880,BELFIELD,NSW,151.085513,-33.906803,LAKEMBA DC,Delivery Area,Updated 6-Feb-2020,12003,Strathfield - Burwood - Ashfield,120,Sydney - Inner West,R1,-33.9061117,151.0849848,11902136217,11902136217,119021362,Belmore - Belfield,11902,Canterbury,119,Sydney - Inner South West,1,1,1,1,Watson,,N1,PHN101,Central and Eastern Sydney,Burwood,11300,Watson,Inner Metropolitan
189,2192,466,2831,14.6,2592,1621,971,0,414,52,0,47895,"306,525",61.9,2881,BELMORE,NSW,151.089663,-33.921018,LAKEMBA DC,Delivery Area,Updated 6-Feb-2020,11902,Canterbury,119,Sydney - Inner South West,R1,-33.9178204,151.0908086,11902136237,11902136237,119021362,Belmore - Belfield,11902,Canterbury,119,Sydney - Inner South West,1,1,1,1,Watson,,N1,PHN101,Central and Eastern Sydney,Burwood,11300,Watson,Inner Metropolitan
190,2193,842,4094,19.1,4356,3338,1018,0,784,58,0,55468,"354,996",71.5,2882,ASHBURY,NSW,151.12086,-33.910308,CROYDON PARK DC,Delivery Area,Updated 6-Feb-2020,12003,Strathfield - Burwood - Ashfield,120,Sydney - Inner West,R1,-33.8997098,151.1199309,12003139205,12003139205,120031392,Canterbury (North) - Ashbury,12003,Strathfield - Burwood - Ashfield,120,Sydney - Inner West,1,1,1,1,Watson,26.42330742,N1,PHN101,Central and Eastern Sydney,Burwood,11300,Watson,Inner Metropolitan
191,2194,526,3060,15,3731,1718,1461,552,458,67,1,59614,"381,529",77,2885,CAMPSIE,NSW,151.101777,-33.917601,CROYDON PARK DC,Delivery Area,Updated 6-Feb-2020,12003,Strathfield - Burwood - Ashfield,120,Sydney - Inner West,R1,-33.9105784,151.1024569,11902136317,11902136317,119021363,Canterbury (South) - Campsie,11902,Canterbury,119,Sydney - Inner South West,1,1,1,1,Watson,,N1,PHN101,Central and Eastern Sydney,Burwood,11300,Watson,Inner Metropolitan
192,2195,603,2736,19.3,3430,2058,1372,0,528,75,0,58170,"372,287",75.1,2886,LAKEMBA,NSW,151.076939,-33.924525,LAKEMBA DC,Delivery Area,Updated 6-Feb-2020,11902,Canterbury,119,Sydney - Inner South West,R1,-33.9200417,151.0771497,11902136503,11902157320,119021573,Lakemba,11902,Canterbury,119,Sydney - Inner South West,1,1,1,1,Watson,-3492,N1,PHN101,Central and Eastern Sydney,Canterbury-Bankstown,11570,Watson,Inner Metropolitan
193,2196,1622,8517,16.9,8838,6064,2774,0,1443,179,0,119589,"765,371",154.4,2888,PUNCHBOWL,NSW,151.057799,-33.930089,LAKEMBA DC,Delivery Area,Updated 6-Feb-2020,11902,Canterbury,119,Sydney - Inner South West,R1,-33.9324629,151.049487,11902136623,11902136623,119021366,Punchbowl,11902,Canterbury,119,Sydney - Inner South West,1,1,1,1,Watson,,N1,PHN105,South Western Sydney,Canterbury-Bankstown,11570,Watson,Inner Metropolitan
194,2197,670,3012,20.1,4708,2680,1005,1023,605,64,1,37156,"237,796",47.8,2890,BASS HILL,NSW,150.998155,-33.901198,LEIGHTONFIELD DF,Delivery Area,Updated 6-Feb-2020,12503,Merrylands - Guildford,125,Sydney - Parramatta,R1,-33.8990652,150.9976541,11901135443,11901135443,119011354,Bass Hill - Georges Hall,11901,Bankstown,119,Sydney - Inner South West,1,1,1,1,Blaxland,34.62891769,N1,PHN105,South Western Sydney,Canterbury-Bankstown,11570,Blaxland,Inner Metropolitan
195,2198,620,2833,19,3679,2360,1319,0,538,82,0,34957,"223,726",45,2891,GEORGES HALL,NSW,150.986277,-33.908788,LEIGHTONFIELD DF,Delivery Area,Updated 6-Feb-2020,11901,Bankstown,119,Sydney - Inner South West,R1,-33.9062913,150.9860137,11901135406,11901135406,119011354,Bass Hill - Georges Hall,11901,Bankstown,119,Sydney - Inner South West,1,1,1,1,Blaxland,12.88911819,N1,PHN105,South Western Sydney,Canterbury-Bankstown,11570,Blaxland,Inner Metropolitan
196,2199,1085,4905,19.5,5900,4054,1846,0,958,127,0,63970,"409,409",82.5,2892,YAGOONA,NSW,151.023171,-33.905586,YAGOONA WEST LPO,Delivery Area,Updated 6-Feb-2020,11901,Bankstown,119,Sydney - Inner South West,R1,-33.9050378,151.0209375,11901136119,11901136119,119011361,Yagoona - Birrong,11901,Bankstown,119,Sydney - Inner South West,1,1,1,1,Blaxland,44.52137756,N1,PHN105,South Western Sydney,Canterbury-Bankstown,11570,Watson,Inner Metropolitan
197,2200,2001,9110,18.6,15021,7219,7262,540,1696,304,1,201104,"1,287,065",259.7,2894,BANKSTOWN,NSW,151.014937,-33.926559,BANKSTOWN SQUARE POST SHOP,Delivery Area,Updated 6-Feb-2020,11902,Canterbury,119,Sydney - Inner South West,R1,-33.91817,151.03497,11901135359,11901157228,119011572,Bankstown - South,11901,Bankstown,119,Sydney - Inner South West,1,1,1,1,Blaxland,40.87238312,N1,PHN105,South Western Sydney,Canterbury-Bankstown,11570,Watson,Inner Metropolitan
198,2203,541,2711,18.9,2582,2086,496,0,513,28,0,37655,"240,991",48.5,2901,DULWICH HILL,NSW,151.138999,-33.90441,ALEXANDRIA DF,Delivery Area,Updated 6-Feb-2020,12003,Strathfield - Burwood - Ashfield,120,Sydney - Inner West,R1,-33.9041707,151.1374068,12003139401,12003139401,120031394,Dulwich Hill - Lewisham,12003,Strathfield - Burwood - Ashfield,120,Sydney - Inner West,1,1,1,1,Grayndler,30.32472992,N1,PHN101,Central and Eastern Sydney,Inner West,14170,Grayndler,Inner Metropolitan
199,2204,1145,5936,16.5,9069,4108,4579,382,979,165,1,129162,"826,638",168.3,2902,MARRICKVILLE,NSW,151.155539,-33.912288,MARRICKVILLE SOUTH LPO,Delivery Area,Updated 6-Feb-2020,12003,Strathfield - Burwood - Ashfield,120,Sydney - Inner West,R1,-33.9086291,151.1548847,11702132661,11702132661,117021326,Marrickville,11702,Marrickville - Sydenham - Petersham,117,Sydney - City and Inner South,1,1,1,1,Grayndler,,N1,PHN101,Central and Eastern Sydney,Inner West,14170,Grayndler,Inner Metropolitan
200,2205,506,2911,15.5,3007,1876,1131,0,450,56,0,51277,"328,171",66.3,2627,ARNCLIFFE,NSW,151.147956,-33.937551,ROCKDALE DC,Delivery Area,Updated 6-Feb-2020,11904,Kogarah - Rockdale,119,Sydney - Inner South West,R1,-33.9391501,151.1478116,11904137503,11904137503,119041375,Arncliffe - Bardwell Valley,11904,Kogarah - Rockdale,119,Sydney - Inner South West,1,1,1,1,Barton,,N1,PHN101,Central and Eastern Sydney,Bayside,10500,Barton,Inner Metropolitan
201,2206,1141,6450,15.7,6161,4410,1751,0,1014,127,0,77160,"493,826",99.4,2630,CLEMTON PARK,NSW,151.122881,-33.926056,KINGSGROVE DC,Delivery Area,Updated 6-Feb-2020,12003,Strathfield - Burwood - Ashfield,120,Sydney - Inner West,R1,-33.9258275,151.104641,11902136349,11902136349,119021363,Canterbury (South) - Campsie,11902,Canterbury,119,Sydney - Inner South West,1,1,1,1,Barton,49.83332825,N1,PHN101,Central and Eastern Sydney,Inner West,14170,Barton,Inner Metropolitan
202,2207,1388,8869,14.1,7951,5292,2433,226,1250,137,1,103471,"662,214",133.4,2633,BARDWELL PARK,NSW,151.119517,-33.948744,ROCKDALE DC,Delivery Area,Updated 6-Feb-2020,11904,Kogarah - Rockdale,119,Sydney - Inner South West,R1,-33.93539,151.12541,11904137731,11904137731,119041377,Kingsgrove (South) - Bardwell Park,11904,Kogarah - Rockdale,119,Sydney - Inner South West,1,1,1,1,Barton,,N1,PHN101,Central and Eastern Sydney,Georges River,12930,Barton,Inner Metropolitan
203,2208,801,4239,16.9,5256,3049,2207,0,718,83,0,81756,"523,237",106.6,2638,KINGSGROVE,NSW,151.098002,-33.942632,KINGSGROVE DC,Delivery Area,Updated 2-Dec-2022,11904,Kogarah - Rockdale,119,Sydney - Inner South West,R1,-33.9379361,151.0995447,11902136438,11902136438,119021364,Kingsgrove (North) - Earlwood,11902,Canterbury,119,Sydney - Inner South West,1,1,1,1,Barton,,N1,PHN101,Central and Eastern Sydney,Georges River,12930,Watson,Inner Metropolitan
204,2209,1049,4946,19.8,4927,3899,1028,0,980,69,0,58335,"373,346",75.2,2640,BEVERLY HILLS,NSW,151.075304,-33.94913,KINGSGROVE DC,Delivery Area,Updated 6-Feb-2020,11903,Hurstville,119,Sydney - Inner South West,R1,-33.9488484,151.0803942,11903137026,11903137026,119031370,Narwee - Beverly Hills,11903,Hurstville,119,Sydney - Inner South West,1,1,1,1,Banks,37.50851822,N1,PHN101,Central and Eastern Sydney,Georges River,12930,Watson,Inner Metropolitan
205,2210,2130,9215,20.4,12443,7930,4513,0,1882,248,0,139690,"894,015",181.3,2642,LUGARNO,NSW,151.052257,-33.957725,PEAKHURST DC,Delivery Area,Updated 6-Feb-2020,11903,Hurstville,119,Sydney - Inner South West,R1,-33.98469,151.04352,11903137236,11903137236,119031372,Peakhurst - Lugarno,11903,Hurstville,119,Sydney - Inner South West,1,1,1,1,Banks,-3492,N1,PHN101,Central and Eastern Sydney,Georges River,12930,Watson,Inner Metropolitan
206,2211,1269,6374,17.2,8920,4866,3816,238,1096,172,1,107205,"686,111",139.6,2646,PADSTOW,NSW,151.03221,-33.961366,LEIGHTONFIELD DF,Delivery Area,Updated 6-Feb-2020,11902,Canterbury,119,Sydney - Inner South West,R1,-33.9504502,151.0309,11901135822,11901135822,119011358,Padstow,11901,Bankstown,119,Sydney - Inner South West,1,1,1,1,Banks,37.0409317,N1,PHN105,South Western Sydney,Canterbury-Bankstown,11570,Watson,Inner Metropolitan
207,2212,1231,5802,18.4,8906,4882,3799,225,1070,160,1,115524,"739,354",150.7,2648,REVESBY,NSW,151.014547,-33.947286,REVESBY NORTH LPO,Delivery Area,Updated 6-Feb-2020,11901,Bankstown,119,Sydney - Inner South West,R1,-33.9452471,151.018035,11901136025,11901136025,119011360,Revesby,11901,Bankstown,119,Sydney - Inner South West,1,1,1,1,Banks,17.97496414,N1,PHN105,South Western Sydney,Canterbury-Bankstown,11570,Blaxland,Inner Metropolitan
208,2213,1865,8072,20.5,10672,7603,2893,176,1656,208,1,91690,"586,814",118,2651,EAST HILLS,NSW,150.997836,-33.964102,LEIGHTONFIELD DF,Delivery Area,Updated 6-Feb-2020,11901,Bankstown,119,Sydney - Inner South West,R1,-33.96396,150.98974,11901135942,11901135942,119011359,Panania - Milperra - Picnic Point,11901,Bankstown,119,Sydney - Inner South West,1,1,1,1,Banks,23.05967712,N1,PHN105,South Western Sydney,Canterbury-Bankstown,11570,Banks,Inner Metropolitan
209,2214,525,1365,31.7,4197,2022,2175,0,433,92,0,57880,"370,433",76,2654,MILPERRA,NSW,150.981592,-33.941443,LEIGHTONFIELD DF,Delivery Area,Updated 6-Feb-2020,12703,Liverpool,127,Sydney - South West,R1,-33.9405364,150.9801939,11901135905,11901135905,119011359,Panania - Milperra - Picnic Point,11901,Bankstown,119,Sydney - Inner South West,1,1,1,1,Blaxland,,N1,PHN105,South Western Sydney,Canterbury-Bankstown,11570,Blaxland,Inner Metropolitan
210,2216,799,4728,15.1,4625,3112,1513,0,714,85,0,81072,"518,858",104.7,2655,BANKSIA,NSW,151.148204,-33.955393,ROCKDALE DC,Delivery Area,Updated 6-Feb-2020,11904,Kogarah - Rockdale,119,Sydney - Inner South West,R1,-33.94776,151.14806,11904138111,11904138111,119041381,Rockdale - Banksia,11904,Kogarah - Rockdale,119,Sydney - Inner South West,1,1,1,1,Barton,-3492,N1,PHN101,Central and Eastern Sydney,Bayside,10500,Barton,Inner Metropolitan
211,2217,931,5360,14.6,6347,3452,2568,327,782,148,1,93017,"595,312",119.9,2659,BEVERLEY PARK,NSW,151.140345,-33.974354,ROCKDALE DC,Delivery Area,Updated 6-Feb-2020,11904,Kogarah - Rockdale,119,Sydney - Inner South West,R1,-33.97897,151.1285,11904137922,11904137922,119041379,Kogarah Bay - Carlton - Allawah,11904,Kogarah - Rockdale,119,Sydney - Inner South West,1,1,1,1,Cook,4.552639484,N1,PHN101,Central and Eastern Sydney,Bayside,10500,Cook,Inner Metropolitan
212,2218,568,2722,19,3047,2215,832,0,516,52,0,47657,"305,004",61.6,2665,ALLAWAH,NSW,151.117453,-33.973161,ROCKDALE DC,Delivery Area,Updated 6-Feb-2020,11904,Kogarah - Rockdale,119,Sydney - Inner South West,R1,-33.9749,151.1167,11904137929,11904137929,119041379,Kogarah Bay - Carlton - Allawah,11904,Kogarah - Rockdale,119,Sydney - Inner South West,1,1,1,1,Banks,42.62110138,N1,PHN101,Central and Eastern Sydney,Georges River,12930,Barton,Inner Metropolitan
213,2219,684,4341,13.2,4323,2641,1682,0,573,111,0,52476,"335,849",67.6,2667,DOLLS POINT,NSW,151.132495,-33.996587,ROCKDALE DC,Delivery Area,Updated 6-Feb-2020,11904,Kogarah - Rockdale,119,Sydney - Inner South West,R1,-33.99386,151.14301,11904138203,11904138203,119041382,Sans Souci - Ramsgate,11904,Kogarah - Rockdale,119,Sydney - Inner South West,1,1,1,1,Cook,3.258409739,N1,PHN101,Central and Eastern Sydney,Georges River,12930,Cook,Inner Metropolitan
214,2220,1153,5157,19.4,6700,4253,2447,0,1000,153,0,83918,"537,074",108.2,2670,HURSTVILLE,NSW,151.101764,-33.966692,HURSTVILLE WESTFIELD POST SHOP,Delivery Area,Updated 6-Feb-2020,11904,Kogarah - Rockdale,119,Sydney - Inner South West,R1,-33.9645633,151.1010187,11903136831,11903136831,119031368,Hurstville,11903,Hurstville,119,Sydney - Inner South West,1,1,1,1,Barton,69.98145294,N1,PHN101,Central and Eastern Sydney,Georges River,12930,Barton,Inner Metropolitan
215,2221,1049,5197,16,6925,3892,3033,0,833,216,0,70712,"452,556",91.1,2673,BLAKEHURST,NSW,151.10599,-33.992159,PEAKHURST DC,Delivery Area,Updated 6-Feb-2020,11904,Kogarah - Rockdale,119,Sydney - Inner South West,R1,-33.9897654,151.1080239,11903137430,11903137430,119031374,South Hurstville - Blakehurst,11903,Hurstville,119,Sydney - Inner South West,1,1,1,1,Banks,24.71159744,N1,PHN101,Central and Eastern Sydney,Georges River,12930,Cook,Inner Metropolitan
216,2222,503,2710,17,2702,1976,726,0,461,42,0,37894,"242,524",48.9,2678,PENSHURST,NSW,151.084774,-33.964713,PEAKHURST DC,Delivery Area,Updated 6-Feb-2020,11903,Hurstville,119,Sydney - Inner South West,R1,-33.9623045,151.0849848,11903136931,11903136931,119031369,Mortdale - Penshurst,11903,Hurstville,119,Sydney - Inner South West,1,1,1,1,Banks,59.55621719,N1,PHN101,Central and Eastern Sydney,Georges River,12930,Barton,Inner Metropolitan
217,2223,1315,5912,19.5,8245,5183,2510,552,1154,159,2,84747,"542,384",109.6,2679,MORTDALE,NSW,151.071837,-33.980264,PEAKHURST DC,Delivery Area,Updated 6-Feb-2020,11903,Hurstville,119,Sydney - Inner South West,R1,-33.96932,151.06969,11903136943,11903136943,119031369,Mortdale - Penshurst,11903,Hurstville,119,Sydney - Inner South West,1,1,1,1,Banks,42.4234848,N1,PHN101,Central and Eastern Sydney,Georges River,12930,Banks,Inner Metropolitan
218,2224,908,4903,15.1,5999,3627,2372,0,739,169,0,63907,"409,004",82.4,2681,KANGAROO POINT,NSW,151.101891,-34.01362,TAREN POINT DC,Delivery Area,Updated 6-Feb-2020,12802,Sutherland - Menai - Heathcote,128,Sydney - Sutherland,R1,-34.002,151.096,12801153110,12801153110,128011531,Sylvania - Taren Point,12801,Cronulla - Miranda - Caringbah,128,Sydney - Sutherland,1,1,1,1,Cook,,N1,PHN101,Central and Eastern Sydney,Georges River,12930,Cook,Inner Metropolitan
219,2225,438,1828,20.1,2695,1813,882,0,367,71,0,26594,"170,199",34.3,2685,CARAVAN HEAD,NSW,151.087892,-33.997441,KIRRAWEE DC,Delivery Area,Updated 6-Feb-2020,12802,Sutherland - Menai - Heathcote,128,Sydney - Sutherland,R1,-33.9974549,151.0885576,12802153625,12802153625,128021536,Oyster Bay - Como - Jannali,12802,Sutherland - Menai - Heathcote,128,Sydney - Sutherland,1,1,1,1,Hughes,,N1,PHN101,Central and Eastern Sydney,Georges River,12930,Hughes,Outer Metropolitan
220,2226,1075,4151,23.4,5744,4450,1294,0,971,104,0,51240,"327,934",66.1,2687,BONNET BAY,NSW,151.063808,-34.009345,KIRRAWEE DC,Delivery Area,Updated 6-Feb-2020,12802,Sutherland - Menai - Heathcote,128,Sydney - Sutherland,R1,-34.01025,151.05238,12802153614,12802153614,128021536,Oyster Bay - Como - Jannali,12802,Sutherland - Menai - Heathcote,128,Sydney - Sutherland,1,1,1,1,Hughes,,N1,PHN101,Central and Eastern Sydney,Georges River,12930,Hughes,Outer Metropolitan
221,2227,925,4594,17.4,5582,3874,1708,0,801,124,0,62180,"397,954",80.1,2690,GYMEA,NSW,151.085005,-34.04984,KIRRAWEE DC,Delivery Area,Updated 6-Feb-2020,12802,Sutherland - Menai - Heathcote,128,Sydney - Sutherland,R1,-34.0333,151.08556,12801152921,12801152921,128011529,Gymea - Grays Point,12801,Cronulla - Miranda - Caringbah,128,Sydney - Sutherland,1,1,1,1,Cook,,N1,PHN101,Central and Eastern Sydney,Sutherland Shire,17150,Hughes,Outer Metropolitan
222,2228,1066,5451,16.9,6587,4227,2360,0,920,146,0,87711,"561,353",113.3,2692,MIRANDA,NSW,151.101564,-34.037692,TAREN POINT DC,Delivery Area,Updated 6-Feb-2020,12801,Cronulla - Miranda - Caringbah,128,Sydney - Sutherland,R1,-34.0299364,151.1055499,12801153005,12801153005,128011530,Miranda - Yowie Bay,12801,Cronulla - Miranda - Caringbah,128,Sydney - Sutherland,1,1,1,1,Cook,,N1,PHN101,Central and Eastern Sydney,Sutherland Shire,17150,Cook,Inner Metropolitan
223,2229,1809,9293,15.9,13940,7240,5754,946,1474,333,2,183382,"1,173,644",238,2694,CARINGBAH,NSW,151.120091,-34.05494,TAREN POINT DC,Delivery Area,Updated 6-Feb-2020,12801,Cronulla - Miranda - Caringbah,128,Sydney - Sutherland,R1,-34.0452,151.1218,12801152764,12801160208,128011602,Caringbah,12801,Cronulla - Miranda - Caringbah,128,Sydney - Sutherland,1,1,1,1,Cook,54.91544342,N1,PHN101,Central and Eastern Sydney,Sutherland Shire,17150,Cook,Inner Metropolitan
224,2230,1656,6288,22.2,10562,6821,3741,0,1394,262,0,110095,"704,608",141.9,2700,BUNDEENA,NSW,151.136596,-34.093213,TAREN POINT DC,Delivery Area,Updated 6-Feb-2020,12802,Sutherland - Menai - Heathcote,128,Sydney - Sutherland,R1,-34.0834162,151.1515469,12801152804,12801160427,128011604,Cronulla - Kurnell - Bundeena,12801,Cronulla - Miranda - Caringbah,128,Sydney - Sutherland,2,2,5,5,Cook,69.76618958,N1,PHN101,Central and Eastern Sydney,Sutherland Shire,17150,Hughes,Outer Metropolitan
225,2231,276,774,29.7,2358,1163,917,278,230,45,1,42831,"274,121",56.4,2705,KURNELL,NSW,151.193492,-34.029927,TAREN POINT DC,Delivery Area,Updated 6-Feb-2020,12801,Cronulla - Miranda - Caringbah,128,Sydney - Sutherland,R1,-34.0194134,151.1985879,12801152816,12801160401,128011604,Cronulla - Kurnell - Bundeena,12801,Cronulla - Miranda - Caringbah,128,Sydney - Sutherland,1,1,1,1,Cook,4.422577858,N1,PHN101,Central and Eastern Sydney,Bayside,10500,Cook,Inner Metropolitan
226,2232,2177,8927,21.9,13211,8967,3581,663,1952,223,2,149305,"955,550",193.2,2706,AUDLEY,NSW,151.064329,-34.061753,KIRRAWEE DC,Delivery Area,Updated 3-Dec-2022,12802,Sutherland - Menai - Heathcote,128,Sydney - Sutherland,R1,-34.0730997,151.0567636,12802153701,12802153701,128021537,Royal National Park,12802,Sutherland - Menai - Heathcote,128,Sydney - Sutherland,2,2,2,2,Hughes,109.0031738,N1,PHN101,Central and Eastern Sydney,Sutherland Shire,17150,Hughes,Outer Metropolitan
